city	state_id	lat	lng	density	timezone
New York	NY	40.6943	-73.9249	10768	America/New_York
Los Angeles	CA	34.1141	-118.4068	3267	America/Los_Angeles
Chicago	IL	41.8375	-87.6866	4576	America/Chicago
Miami	FL	25.784	-80.2101	4945	America/New_York
Dallas	TX	32.7935	-96.7667	1522	America/Chicago
Houston	TX	29.786	-95.3885	1394	America/Chicago
Philadelphia	PA	40.0077	-75.1339	4544	America/New_York
Atlanta	GA	33.7628	-84.422	1419	America/New_York
Washington	DC	38.9047	-77.0163	4434	America/New_York
Boston	MA	42.3188	-71.0852	5505	America/New_York
Phoenix	AZ	33.5722	-112.0892	1236	America/Phoenix
Detroit	MI	42.3834	-83.1024	1871	America/Detroit
San Francisco	CA	37.7558	-122.4449	7199	America/Los_Angeles
Seattle	WA	47.6211	-122.3244	3414	America/Los_Angeles
San Diego	CA	32.8313	-117.1222	1675	America/Los_Angeles
Minneapolis	MN	44.9635	-93.2678	3035	America/Chicago
Tampa	FL	27.9945	-82.4447	1340	America/New_York
Brooklyn	NY	40.6501	-73.9496	15200	America/New_York
Denver	CO	39.762	-104.8758	1805	America/Denver
Queens	NY	40.7498	-73.7976	8503	America/New_York
Baltimore	MD	39.3051	-76.6144	2872	America/New_York
Las Vegas	NV	36.2333	-115.2654	1754	America/Los_Angeles
St. Louis	MO	38.6359	-90.2451	1905	America/Chicago
Riverside	CA	33.9381	-117.3949	1556	America/Los_Angeles
Portland	OR	45.5371	-122.65	1881	America/Los_Angeles
San Antonio	TX	29.4632	-98.5238	1183	America/Chicago
Sacramento	CA	38.5677	-121.4685	1971	America/Los_Angeles
San Juan	PR	18.3985	-66.061	2982	America/Puerto_Rico
San Jose	CA	37.3012	-121.848	2229	America/Los_Angeles
Orlando	FL	28.4773	-81.337	994	America/New_York
Cleveland	OH	41.4764	-81.6805	1903	America/New_York
Pittsburgh	PA	40.4397	-79.9763	2100	America/New_York
Manhattan	NY	40.7834	-73.9662	28653	America/New_York
Austin	TX	30.3005	-97.7522	1165	America/Chicago
Cincinnati	OH	39.1413	-84.506	1501	America/New_York
Indianapolis	IN	39.7771	-86.1458	928	America/Indiana/Indianapolis
Kansas City	MO	39.1238	-94.5541	602	America/Chicago
Columbus	OH	39.9862	-82.9855	1560	America/New_York
Charlotte	NC	35.2083	-80.8303	1094	America/New_York
Virginia Beach	VA	36.7335	-76.0435	711	America/New_York
Bronx	NY	40.8501	-73.8662	13356	America/New_York
Milwaukee	WI	43.0642	-87.9675	2379	America/Chicago
Providence	RI	41.823	-71.4187	3764	America/New_York
Jacksonville	FL	30.3322	-81.6749	466	America/New_York
Salt Lake City	UT	40.7776	-111.9311	700	America/Denver
Nashville	TN	36.1715	-86.7842	541	America/Chicago
Raleigh	NC	35.8324	-78.6429	1232	America/New_York
Memphis	TN	35.1087	-89.9663	846	America/Chicago
Richmond	VA	37.5295	-77.4756	1476	America/New_York
Louisville	KY	38.1663	-85.6485	906	America/New_York
New Orleans	LA	30.0687	-89.9288	891	America/Chicago
Bridgeport	CT	41.1918	-73.1954	3485	America/New_York
Oklahoma City	OK	35.4676	-97.5136	413	America/Chicago
Buffalo	NY	42.9018	-78.8487	2446	America/New_York
Hartford	CT	41.7661	-72.6834	2722	America/New_York
Fort Worth	TX	32.7817	-97.3474	992	America/Chicago
Tucson	AZ	32.1541	-110.8787	873	America/Phoenix
Honolulu	HI	21.3294	-157.846	2214	Pacific/Honolulu
McAllen	TX	26.2252	-98.2467	883	America/Chicago
El Paso	TX	31.8476	-106.43	1015	America/Denver
Omaha	NE	41.2627	-96.0529	1307	America/Chicago
Albuquerque	NM	35.1054	-106.6465	1155	America/Denver
Birmingham	AL	33.5279	-86.7971	553	America/Chicago
Sarasota	FL	27.3387	-82.5432	1518	America/New_York
Dayton	OH	39.7805	-84.2003	971	America/New_York
Rochester	NY	43.168	-77.6162	2227	America/New_York
Fresno	CA	36.783	-119.7939	1763	America/Los_Angeles
Tulsa	OK	36.1283	-95.9042	786	America/Chicago
Allentown	PA	40.5961	-75.4756	2664	America/New_York
Concord	CA	37.9722	-122.0016	1633	America/Los_Angeles
Cape Coral	FL	26.6443	-81.9957	690	America/New_York
Charleston	SC	32.8168	-79.9687	461	America/New_York
Colorado Springs	CO	38.8674	-104.7605	932	America/Denver
Springfield	MA	42.1155	-72.5395	1861	America/New_York
Grand Rapids	MI	42.9619	-85.6562	1719	America/Detroit
Ogden	UT	41.2279	-111.9682	1221	America/Denver
Columbia	SC	34.0378	-80.9036	378	America/New_York
Baton Rouge	LA	30.442	-91.1311	993	America/Chicago
Knoxville	TN	35.9692	-83.9496	733	America/New_York
Mission Viejo	CA	33.6096	-117.6551	2091	America/Los_Angeles
Albany	NY	42.6664	-73.7987	1747	America/New_York
Akron	OH	41.0798	-81.5219	1230	America/New_York
New Haven	CT	41.3113	-72.9246	2693	America/New_York
Provo	UT	40.2457	-111.6457	1082	America/Denver
Bakersfield	CA	35.3529	-119.0359	979	America/Los_Angeles
Murrieta	CA	33.5719	-117.1909	1310	America/Los_Angeles
Des Moines	IA	41.5725	-93.6105	943	America/Chicago
Worcester	MA	42.2705	-71.8079	1913	America/New_York
Mesa	AZ	33.4015	-111.7178	1416	America/Phoenix
Toledo	OH	41.6638	-83.5827	1319	America/New_York
Palm Bay	FL	27.9631	-80.6593	508	America/New_York
Staten Island	NY	40.5834	-74.1496	3286	America/New_York
Wichita	KS	37.6895	-97.3443	930	America/Chicago
Harrisburg	PA	40.2752	-76.8843	2342	America/New_York
Long Beach	CA	33.7977	-118.167	3518	America/Los_Angeles
Little Rock	AR	34.7256	-92.3577	637	America/Chicago
Madison	WI	43.0822	-89.393	1253	America/Chicago
Greenville	SC	34.8354	-82.3646	905	America/New_York
Reno	NV	39.5497	-119.8483	890	America/Los_Angeles
Port St. Lucie	FL	27.2796	-80.3884	634	America/New_York
Lancaster	PA	40.042	-76.3012	3169	America/New_York
Spokane	WA	47.6671	-117.433	1230	America/Los_Angeles
Denton	TX	33.2175	-97.1418	559	America/Chicago
Poughkeepsie	NY	41.695	-73.9211	2277	America/New_York
Oakland	CA	37.7904	-122.2166	2917	America/Los_Angeles
Winston-Salem	NC	36.1029	-80.261	715	America/New_York
Syracuse	NY	43.0407	-76.1437	2196	America/New_York
Boise	ID	43.6005	-116.2308	1047	America/Boise
Chattanooga	TN	35.066	-85.2481	491	America/New_York
Augusta	GA	33.3645	-82.0708	252	America/New_York
Arlington	TX	32.6998	-97.125	1600	America/Chicago
Stockton	CA	37.9765	-121.3109	1930	America/Los_Angeles
Durham	NC	35.9792	-78.9022	945	America/New_York
Palm Coast	FL	29.5389	-81.2457	357	America/New_York
Scranton	PA	41.4044	-75.6649	1174	America/New_York
Aurora	CO	39.7083	-104.7237	914	America/Denver
Oxnard	CA	34.1964	-119.1815	3023	America/Los_Angeles
Modesto	CA	37.6375	-121.0028	1923	America/Los_Angeles
Indio	CA	33.7346	-116.2346	1045	America/Los_Angeles
Kissimmee	FL	28.3041	-81.4169	1299	America/New_York
Youngstown	OH	41.0993	-80.6463	730	America/New_York
Pensacola	FL	30.4413	-87.1911	901	America/Chicago
Lancaster	CA	34.6935	-118.1753	645	America/Los_Angeles
Anaheim	CA	33.839	-117.8574	2711	America/Los_Angeles
Fayetteville	AR	36.0714	-94.1661	617	America/Chicago
Jackson	MS	32.3157	-90.2125	566	America/Chicago
Victorville	CA	34.5277	-117.3536	644	America/Los_Angeles
Bonita Springs	FL	26.3558	-81.7859	580	America/New_York
Greensboro	NC	36.0956	-79.8271	877	America/New_York
Corpus Christi	TX	27.7254	-97.3767	776	America/Chicago
Flint	MI	43.0236	-83.6921	1108	America/Detroit
Fayetteville	NC	35.085	-78.9772	550	America/New_York
Santa Ana	CA	33.7367	-117.8819	4697	America/Los_Angeles
Fort Wayne	IN	41.0888	-85.1436	935	America/Indiana/Indianapolis
Mobile	AL	30.6782	-88.1162	525	America/Chicago
Lansing	MI	42.7142	-84.5601	1158	America/Detroit
Ann Arbor	MI	42.2759	-83.731	1657	America/Detroit
Huntsville	AL	34.6981	-86.6412	353	America/Chicago
Lexington	KY	38.0423	-84.4587	438	America/New_York
Santa Rosa	CA	38.4458	-122.7067	1619	America/Los_Angeles
Antioch	CA	37.9787	-121.796	1475	America/Los_Angeles
Asheville	NC	35.5707	-82.5537	783	America/New_York
Henderson	NV	36.0133	-115.0381	1126	America/Los_Angeles
St. Paul	MN	44.9478	-93.1039	2272	America/Chicago
Fort Collins	CO	40.5477	-105.0656	1120	America/Denver
Lakeland	FL	28.0557	-81.9545	643	America/New_York
Springfield	MO	37.1943	-93.2916	785	America/Chicago
The Woodlands	TX	30.1738	-95.5134	1020	America/Chicago
Shreveport	LA	32.4653	-93.7955	680	America/Chicago
Trenton	NJ	40.2237	-74.7641	4248	America/New_York
Plano	TX	33.0502	-96.7486	1555	America/Chicago
Round Lake Beach	IL	42.3791	-88.0811	2090	America/Chicago
South Bend	IN	41.6767	-86.2696	944	America/Indiana/Indianapolis
Savannah	GA	32.0286	-81.1821	525	America/New_York
Newark	NJ	40.7245	-74.1725	4508	America/New_York
Davenport	IA	41.5565	-90.6053	618	America/Chicago
Myrtle Beach	SC	33.7094	-78.8844	552	America/New_York
Lincoln	NE	40.8099	-96.6784	1131	America/Chicago
Rockford	IL	42.2596	-89.064	881	America/Chicago
Reading	PA	40.34	-75.9267	3464	America/New_York
Canton	OH	40.8078	-81.3676	1039	America/New_York
Irvine	CA	33.6772	-117.7738	1604	America/Los_Angeles
Eugene	OR	44.0564	-123.1174	1489	America/Los_Angeles
Chula Vista	CA	32.6281	-117.0144	2090	America/Los_Angeles
St. Petersburg	FL	27.7931	-82.6652	1648	America/New_York
Salem	OR	44.9233	-123.0244	1359	America/Los_Angeles
Lafayette	LA	30.2082	-92.0325	876	America/Chicago
Laredo	TX	27.5625	-99.4874	944	America/Chicago
Jersey City	NJ	40.7184	-74.0686	6878	America/New_York
Santa Clarita	CA	34.4175	-118.4964	1159	America/Los_Angeles
Aguadilla	PR	18.4382	-67.1537	1681	America/Puerto_Rico
Wilmington	NC	34.2099	-77.8866	917	America/New_York
Lubbock	TX	33.5657	-101.8879	737	America/Chicago
Chandler	AZ	33.2825	-111.8514	1520	America/Phoenix
Scottsdale	AZ	33.6872	-111.8651	535	America/Phoenix
Tallahassee	FL	30.4551	-84.2527	737	America/New_York
Montgomery	AL	32.3482	-86.2668	480	America/Chicago
Peoria	IL	40.752	-89.6154	906	America/Chicago
Glendale	AZ	33.5791	-112.2311	1568	America/Phoenix
Columbus	GA	32.51	-84.8771	348	America/New_York
Anchorage	AK	61.1508	-149.1091	66	America/Anchorage
Gilbert	AZ	33.31	-111.7463	1398	America/Phoenix
North Las Vegas	NV	36.2883	-115.0888	942	America/Los_Angeles
Avondale	AZ	33.3873	-112.3235	703	America/Phoenix
McKinney	TX	33.2016	-96.667	1102	America/Chicago
Norfolk	VA	36.8945	-76.259	1770	America/New_York
Chesapeake	VA	36.6778	-76.3023	276	America/New_York
Kennewick	WA	46.1978	-119.1732	1162	America/Los_Angeles
Winter Haven	FL	28.0118	-81.7014	510	America/New_York
Irving	TX	32.8583	-96.9702	1386	America/Chicago
Garland	TX	32.91	-96.6304	1612	America/Chicago
York	PA	39.9651	-76.7315	3211	America/New_York
Concord	NC	35.3933	-80.6369	572	America/New_York
Arlington	VA	38.8786	-77.1011	3511	America/New_York
Atlantic City	NJ	39.3797	-74.4527	1356	America/New_York
Visalia	CA	36.3276	-119.3269	1354	America/Los_Angeles
Fremont	CA	37.5265	-121.9843	1157	America/Los_Angeles
Hialeah	FL	25.8696	-80.3045	4184	America/New_York
Nashua	NH	42.7491	-71.491	1115	America/New_York
Killeen	TX	31.0753	-97.7297	1045	America/Chicago
Gulfport	MS	30.4274	-89.0704	497	America/Chicago
Brownsville	TX	25.9975	-97.458	534	America/Matamoros
Evansville	IN	37.9881	-87.5341	965	America/Chicago
Appleton	WI	44.278	-88.3892	1150	America/Chicago
Navarre	FL	30.4174	-86.8907	625	America/Chicago
Bel Air South	MD	39.5022	-76.3113	998	America/New_York
Kalamazoo	MI	42.2749	-85.5882	1189	America/Detroit
Bremerton	WA	47.5436	-122.7121	560	America/Los_Angeles
Spring Valley	NV	36.0952	-115.2636	2378	America/Los_Angeles
San Bernardino	CA	34.1416	-117.2943	1347	America/Los_Angeles
Roanoke	VA	37.2785	-79.9581	900	America/New_York
Spartanburg	SC	34.9442	-81.9251	720	America/New_York
Tacoma	WA	47.2431	-122.4531	1675	America/Los_Angeles
Enterprise	NV	36.0091	-115.2278	1255	America/Los_Angeles
Green Bay	WI	44.5148	-87.9895	887	America/Chicago
Portland	ME	43.6773	-70.2715	1195	America/New_York
Thousand Oaks	CA	34.1914	-118.8756	891	America/Los_Angeles
Fontana	CA	34.0968	-117.4599	1906	America/Los_Angeles
Hickory	NC	35.741	-81.3223	515	America/New_York
Moreno Valley	CA	33.9244	-117.2045	1570	America/Los_Angeles
Deltona	FL	28.905	-81.2137	950	America/New_York
Fargo	ND	46.8651	-96.8292	957	America/Chicago
Santa Barbara	CA	34.4285	-119.7202	1799	America/Los_Angeles
College Station	TX	30.5852	-96.2959	873	America/Chicago
Gainesville	FL	29.6804	-82.3459	816	America/New_York
Amarillo	TX	35.1984	-101.8316	751	America/Chicago
Norwich	CT	41.5495	-72.0882	538	America/New_York
Olympia	WA	47.0417	-122.8959	1108	America/Los_Angeles
Yonkers	NY	40.9466	-73.8673	4292	America/New_York
Huntington Beach	CA	33.696	-118.0018	2857	America/Los_Angeles
Glendale	CA	34.1819	-118.2468	2525	America/Los_Angeles
Aurora	IL	41.7638	-88.2902	1709	America/Chicago
Huntington	WV	38.4109	-82.4345	1098	America/New_York
Sunrise Manor	NV	36.1783	-115.0487	2269	America/Los_Angeles
North Port	FL	27.0576	-82.1977	267	America/New_York
Hagerstown	MD	39.6401	-77.7217	1270	America/New_York
Grand Prairie	TX	32.6871	-97.0208	1031	America/Chicago
Overland Park	KS	38.887	-94.687	993	America/Chicago
Paradise	NV	36.0872	-115.1355	1758	America/Los_Angeles
Tempe	AZ	33.3881	-111.9319	1852	America/Phoenix
Salinas	CA	36.6883	-121.6317	2564	America/Los_Angeles
Erie	PA	42.1167	-80.0733	1948	America/New_York
Cedar Rapids	IA	41.9662	-91.6783	712	America/Chicago
Waterbury	CT	41.5582	-73.0361	1460	America/New_York
Frisco	TX	33.156	-96.8216	1059	America/Chicago
Waco	TX	31.5599	-97.1882	599	America/Chicago
Gastonia	NC	35.2494	-81.1854	572	America/New_York
Clarksville	TN	36.5692	-87.3413	606	America/Chicago
Vancouver	WA	45.6366	-122.5967	1448	America/Los_Angeles
Lorain	OH	41.4409	-82.184	1044	America/New_York
Nampa	ID	43.5844	-116.5638	1116	America/Boise
Fort Lauderdale	FL	26.1412	-80.1464	2029	America/New_York
Hemet	CA	33.7341	-116.9969	1116	America/Los_Angeles
Newport News	VA	37.1051	-76.5185	1005	America/New_York
Ontario	CA	34.0393	-117.6064	1376	America/Los_Angeles
Rancho Cucamonga	CA	34.1247	-117.5667	1714	America/Los_Angeles
Vallejo	CA	38.1125	-122.2342	1539	America/Los_Angeles
Oceanside	CA	33.2247	-117.3083	1643	America/Los_Angeles
Vero Beach South	FL	27.6132	-80.4163	939	America/New_York
Ocala	FL	29.178	-82.1511	490	America/New_York
Sioux Falls	SD	43.5396	-96.7311	883	America/Chicago
Danbury	CT	41.4015	-73.4709	777	America/New_York
Elk Grove	CA	38.4161	-121.3842	1594	America/Los_Angeles
High Point	NC	35.991	-79.9937	770	America/New_York
Garden Grove	CA	33.7787	-117.9601	3715	America/Los_Angeles
Peoria	AZ	33.7843	-112.2989	377	America/Phoenix
Pembroke Pines	FL	26.0128	-80.3382	2031	America/New_York
Medford	OR	42.3372	-122.854	1224	America/Los_Angeles
Murfreesboro	TN	35.849	-86.4121	869	America/Chicago
Cary	NC	35.7819	-78.8195	1102	America/New_York
Lafayette	IN	40.3991	-86.8593	953	America/Indiana/Indianapolis
Corona	CA	33.8616	-117.5649	1625	America/Los_Angeles
Santa Cruz	CA	36.9789	-122.0346	1970	America/Los_Angeles
Spring Hill	FL	28.4798	-82.53	732	America/New_York
Muskegon	MI	43.2281	-86.2562	1018	America/Detroit
Manchester	NH	42.9848	-71.4447	1312	America/New_York
Marysville	WA	48.0809	-122.1561	1295	America/Los_Angeles
Springfield	IL	39.7709	-89.654	726	America/Chicago
Frederick	MD	39.4337	-77.4141	1158	America/New_York
Hayward	CA	37.6328	-122.0766	1338	America/Los_Angeles
Alexandria	VA	38.8185	-77.0861	4092	America/New_York
Bayamón	PR	18.3794	-66.1635	2250	America/Puerto_Rico
Port Arthur	TX	29.8554	-93.9264	273	America/Chicago
Lakewood	CO	39.6977	-105.1172	1383	America/Denver
Fredericksburg	VA	38.2992	-77.4872	1073	America/New_York
Leesburg	FL	28.7672	-81.8962	232	America/New_York
Hollywood	FL	26.0293	-80.1679	2177	America/New_York
Palmdale	CA	34.5944	-118.1057	557	America/Los_Angeles
Macon	GA	32.8065	-83.6974	236	America/New_York
Kansas City	KS	39.1235	-94.7443	473	America/Chicago
Champaign	IL	40.1142	-88.2737	1486	America/Chicago
Sunnyvale	CA	37.3836	-122.0255	2670	America/Los_Angeles
Pasadena	TX	29.6575	-95.1498	1348	America/Chicago
Pomona	CA	34.0585	-117.7626	2538	America/Los_Angeles
Escondido	CA	33.1348	-117.0723	1554	America/Los_Angeles
Mauldin	SC	34.7821	-82.3032	842	America/New_York
New Bedford	MA	41.6697	-70.9428	1840	America/New_York
Panama City	FL	30.1995	-85.6003	395	America/Chicago
Tuscaloosa	AL	33.2348	-87.5268	627	America/Chicago
Warner Robins	GA	32.5961	-83.6527	786	America/New_York
Naperville	IL	41.748	-88.1659	1459	America/Chicago
Merced	CA	37.3057	-120.4779	1396	America/Los_Angeles
Elkhart	IN	41.6916	-85.9627	739	America/Indiana/Indianapolis
Joliet	IL	41.5188	-88.1499	881	America/Chicago
Binghamton	NY	42.1014	-75.9093	1651	America/New_York
Houma	LA	29.58	-90.7059	882	America/Chicago
Bellevue	WA	47.5951	-122.1535	1686	America/Los_Angeles
Topeka	KS	39.0346	-95.6955	790	America/Chicago
Paterson	NJ	40.9147	-74.1624	6676	America/New_York
Lake Charles	LA	30.201	-93.2111	658	America/Chicago
Torrance	CA	33.8346	-118.3416	2717	America/Los_Angeles
Thornton	CO	39.9197	-104.9438	1549	America/Denver
Tyler	TX	32.3184	-95.3062	711	America/Chicago
Athens	GA	33.9508	-83.3689	414	America/New_York
Beaumont	TX	30.0849	-94.1451	549	America/Chicago
Pueblo	CO	38.2701	-104.6114	779	America/Denver
Odessa	TX	31.8801	-102.3448	926	America/Chicago
Mesquite	TX	32.7602	-96.5865	1134	America/Chicago
Fairfield	CA	38.2583	-122.0335	1081	America/Los_Angeles
Pasadena	CA	34.1597	-118.139	2388	America/Los_Angeles
Charleston	WV	38.3484	-81.6322	579	America/New_York
Fullerton	CA	33.8841	-117.9279	2429	America/Los_Angeles
Miramar	FL	25.9773	-80.3351	1879	America/New_York
Midland	TX	32.0243	-102.1147	722	America/Chicago
Gainesville	GA	34.2902	-83.8294	479	America/New_York
Orange	CA	33.8038	-117.8218	2095	America/Los_Angeles
Olathe	KS	38.8833	-94.82	868	America/Chicago
Santa Maria	CA	34.9333	-120.4431	1786	America/Los_Angeles
Surprise	AZ	33.6815	-112.4515	486	America/Phoenix
Roseville	CA	38.7703	-121.3196	1216	America/Los_Angeles
Metairie	LA	29.9977	-90.178	2299	America/Chicago
Yuma	AZ	32.5995	-114.5491	311	America/Phoenix
Carrollton	TX	32.989	-96.8999	1446	America/Chicago
Burlington	NC	36.076	-79.4685	699	America/New_York
West Valley City	UT	40.6886	-112.0123	1461	America/Denver
Hampton	VA	37.0551	-76.363	1014	America/New_York
Racine	WI	42.7274	-87.8135	1918	America/Chicago
Greeley	CO	40.4152	-104.7706	847	America/Denver
Harlingen	TX	26.1916	-97.6977	625	America/Chicago
Carolina	PR	18.4054	-65.9792	2502	America/Puerto_Rico
Warren	MI	42.4934	-83.027	1507	America/Detroit
Grand Junction	CO	39.0877	-108.5673	606	America/Denver
Coral Springs	FL	26.2702	-80.2591	2252	America/New_York
Columbia	MO	38.9472	-92.3268	711	America/Chicago
Bloomington	IL	40.4757	-88.9703	1106	America/Chicago
Sterling Heights	MI	42.5809	-83.0305	1401	America/Detroit
Stamford	CT	41.1039	-73.5585	1334	America/New_York
Kent	WA	47.3887	-122.2128	1487	America/Los_Angeles
Bellingham	WA	48.7548	-122.469	1246	America/Los_Angeles
Las Cruces	NM	32.3265	-106.7893	516	America/Denver
Greenville	NC	35.5943	-77.376	979	America/New_York
Round Rock	TX	30.527	-97.6642	1321	America/Chicago
Elizabeth	NJ	40.6658	-74.1913	4027	America/New_York
South Lyon	MI	42.4614	-83.6526	1219	America/Detroit
Simi Valley	CA	34.2663	-118.749	1168	America/Los_Angeles
Santa Clara	CA	37.3646	-121.968	2677	America/Los_Angeles
Yakima	WA	46.5923	-120.5496	1302	America/Los_Angeles
Johnson City	TN	36.3406	-82.3806	596	America/New_York
Dover	DE	39.161	-75.5202	617	America/New_York
Pearland	TX	29.5581	-95.3218	998	America/Chicago
Lynchburg	VA	37.4003	-79.1909	638	America/New_York
Fort Smith	AR	35.3495	-94.3695	529	America/Chicago
Yuba City	CA	39.1357	-121.6383	1718	America/Los_Angeles
Lehigh Acres	FL	26.612	-81.6388	518	America/New_York
Kenosha	WI	42.5865	-87.8773	1359	America/Chicago
Arecibo	PR	18.4491	-66.7387	970	America/Puerto_Rico
Berkeley	CA	37.8722	-122.276	4554	America/Los_Angeles
Boulder	CO	40.0248	-105.2524	1595	America/Denver
Texas City	TX	29.4154	-94.9682	288	America/Chicago
Iowa City	IA	41.6559	-91.5303	1144	America/Chicago
Waldorf	MD	38.6085	-76.9194	827	America/New_York
East Los Angeles	CA	34.0326	-118.1691	6242	America/Los_Angeles
Redding	CA	40.5698	-122.365	595	America/Los_Angeles
Arvada	CO	39.832	-105.151	1193	America/Denver
The Villages	FL	28.9034	-81.9887	963	America/New_York
Saginaw	MI	43.4199	-83.9501	1093	America/Detroit
Ponce	PR	18.0127	-66.6212	1497	America/Puerto_Rico
Richardson	TX	32.9716	-96.7093	1602	America/Chicago
Sugar Land	TX	29.5935	-95.6358	1131	America/Chicago
Leominster	MA	42.5209	-71.7717	557	America/New_York
St. Cloud	MN	45.534	-94.1718	660	America/Chicago
Duluth	MN	46.7756	-92.1393	462	America/Chicago
Cambridge	MA	42.3759	-71.1185	7115	America/New_York
Monroe	LA	32.5185	-92.0774	623	America/Chicago
Independence	MO	39.0871	-94.3501	579	America/Chicago
Rochester	MN	44.0154	-92.478	814	America/Chicago
Rock Hill	SC	34.9415	-81.0241	736	America/New_York
Bloomington	IN	39.1637	-86.5257	1407	America/Indiana/Indianapolis
Billings	MT	45.7891	-108.5526	945	America/Denver
Seaside	CA	36.6224	-121.8199	1473	America/Los_Angeles
Clearwater	FL	27.979	-82.7623	1716	America/New_York
Brandon	FL	27.9367	-82.3	1350	America/New_York
Burlington	VT	44.4876	-73.2316	1596	America/New_York
Pottstown	PA	40.2508	-75.6445	1801	America/New_York
Waterloo	IA	42.4918	-92.3522	424	America/Chicago
West Jordan	UT	40.6024	-112.0008	1375	America/Denver
Coeur d'Alene	ID	47.704	-116.7936	1234	America/Los_Angeles
Westminster	CO	39.8837	-105.0624	1403	America/Denver
St. George	UT	37.0758	-113.5752	429	America/Denver
Gilroy	CA	37.0046	-121.5854	1289	America/Los_Angeles
Carlsbad	CA	33.1246	-117.2834	1169	America/Los_Angeles
El Monte	CA	34.0739	-118.0291	4602	America/Los_Angeles
North Charleston	SC	32.9067	-80.0722	566	America/New_York
Chico	CA	39.7578	-121.8161	1116	America/Los_Angeles
Temecula	CA	33.4928	-117.1315	1171	America/Los_Angeles
Costa Mesa	CA	33.6667	-117.9135	2759	America/Los_Angeles
Utica	NY	43.0962	-75.2261	1384	America/New_York
Clovis	CA	36.8278	-119.683	1711	America/Los_Angeles
Norman	OK	35.2335	-97.3471	267	America/Chicago
Elgin	IL	42.0383	-88.324	1137	America/Chicago
Centennial	CO	39.5926	-104.8673	1446	America/Denver
Lowell	MA	42.6389	-71.3217	3157	America/New_York
Downey	CA	33.9379	-118.1311	3462	America/Los_Angeles
Pompano Beach	FL	26.2428	-80.1312	1787	America/New_York
West Palm Beach	FL	26.7469	-80.132	796	America/New_York
Abilene	TX	32.4543	-99.7384	451	America/Chicago
Everett	WA	47.9525	-122.1669	1289	America/Los_Angeles
Miami Gardens	FL	25.9433	-80.2426	2346	America/New_York
Gresham	OR	45.5021	-122.4413	1817	America/Los_Angeles
El Centro	CA	32.7865	-115.5595	1430	America/Los_Angeles
Richmond	CA	37.9477	-122.3389	1413	America/Los_Angeles
Inglewood	CA	33.9566	-118.3444	4654	America/Los_Angeles
Salisbury	MD	38.3756	-75.5865	920	America/New_York
Broken Arrow	OK	36.038	-95.7806	667	America/Chicago
San Buenaventura	CA	34.2741	-119.2314	1913	America/Los_Angeles
Sandy Springs	GA	33.9366	-84.3703	1109	America/New_York
Hillsboro	OR	45.5273	-122.936	1624	America/Los_Angeles
Sioux City	IA	42.4959	-96.3901	545	America/Chicago
Jacksonville	NC	34.7289	-77.3941	589	America/New_York
Meridian	ID	43.6116	-116.3977	1186	America/Boise
Lewisville	TX	33.0454	-96.9815	1124	America/Chicago
Bend	OR	44.0563	-121.3095	1114	America/Los_Angeles
Daly City	CA	37.6862	-122.4685	5418	America/Los_Angeles
Highlands Ranch	CO	39.5419	-104.9708	1702	America/Denver
Jurupa Valley	CA	34.001	-117.4706	958	America/Los_Angeles
Temple	TX	31.1068	-97.3891	415	America/Chicago
Logan	UT	41.7399	-111.8422	1109	America/Denver
Kailua	HI	21.392	-157.7396	1882	Pacific/Honolulu
West Covina	CA	34.0555	-117.9113	2547	America/Los_Angeles
Davie	FL	26.0789	-80.287	1168	America/New_York
Columbia	MD	39.2004	-76.859	1274	America/New_York
League City	TX	29.4874	-95.1087	793	America/Chicago
Mandeville	LA	30.3751	-90.0904	681	America/Chicago
San Tan Valley	AZ	33.1786	-111.5629	534	America/Phoenix
Turlock	CA	37.5053	-120.8588	1660	America/Los_Angeles
Norwalk	CA	33.9069	-118.0829	4157	America/Los_Angeles
Allen	TX	33.1088	-96.6735	1521	America/Chicago
San Germán	PR	18.0827	-67.046	1270	America/Puerto_Rico
San Mateo	CA	37.5522	-122.3121	3297	America/Los_Angeles
Rialto	CA	34.1175	-117.3892	1659	America/Los_Angeles
Burbank	CA	34.1879	-118.3235	2305	America/Los_Angeles
El Cajon	CA	32.8017	-116.9604	2747	America/Los_Angeles
Eau Claire	WI	44.8197	-91.4948	807	America/Chicago
Sparks	NV	39.5736	-119.7161	1090	America/Los_Angeles
Charlottesville	VA	38.0375	-78.4855	1779	America/New_York
Renton	WA	47.4784	-122.1918	1675	America/Los_Angeles
Idaho Falls	ID	43.4871	-112.0362	1004	America/Boise
Vista	CA	33.1896	-117.2386	2073	America/Los_Angeles
Holland	MI	42.7677	-86.0984	771	America/Detroit
Longmont	CO	40.1686	-105.1005	1286	America/Denver
Wichita Falls	TX	33.9072	-98.5291	561	America/Chicago
Lafayette	CO	39.9946	-105.0998	1170	America/Denver
Vacaville	CA	38.3587	-121.9673	1292	America/Los_Angeles
Spokane Valley	WA	47.6626	-117.2346	1016	America/Los_Angeles
La Crosse	WI	43.8241	-91.2268	916	America/Chicago
Carmel	IN	39.965	-86.146	779	America/Indiana/Indianapolis
Boca Raton	FL	26.3752	-80.108	1307	America/New_York
Longview	TX	32.5193	-94.7622	568	America/Chicago
Kingsport	TN	36.5224	-82.5454	394	America/New_York
South Fulton	GA	33.6273	-84.58	446	America/New_York
Beaverton	OR	45.4779	-122.8168	1941	America/Los_Angeles
Rio Rancho	NM	35.2873	-106.6982	365	America/Denver
Prescott Valley	AZ	34.598	-112.3185	435	America/Phoenix
Orem	UT	40.2981	-111.6994	2030	America/Denver
Edinburg	TX	26.3196	-98.1597	843	America/Chicago
San Angelo	TX	31.4424	-100.4504	650	America/Chicago
Portsmouth	NH	43.058	-70.7826	528	America/New_York
Tracy	CA	37.7269	-121.4523	1364	America/Los_Angeles
Federal Way	WA	47.3091	-122.3358	1676	America/Los_Angeles
Lawrence	KS	38.9597	-95.2642	1100	America/Chicago
Manteca	CA	37.7927	-121.2264	1463	America/Los_Angeles
San Marcos	CA	33.135	-117.1743	1525	America/Los_Angeles
Sandy	UT	40.5709	-111.8506	1536	America/Denver
Riverview	FL	27.8227	-82.3023	801	America/New_York
Compton	CA	33.893	-118.2274	3688	America/Los_Angeles
Brockton	MA	42.0821	-71.0242	1732	America/New_York
Santa Fe	NM	35.6619	-105.9819	624	America/Denver
Hanford	CA	36.3274	-119.6549	1272	America/Los_Angeles
Middletown	OH	39.5033	-84.3659	720	America/New_York
Hesperia	CA	34.3975	-117.3147	505	America/Los_Angeles
Portsmouth	VA	36.8468	-76.354	1101	America/New_York
South Gate	CA	33.9447	-118.1926	5063	America/Los_Angeles
Roswell	GA	34.0391	-84.3513	899	America/New_York
Sunrise	FL	26.1547	-80.2997	2256	America/New_York
Bowling Green	KY	36.9716	-86.4378	684	America/Chicago
Lee's Summit	MO	38.9171	-94.3816	598	America/Chicago
Slidell	LA	30.2887	-89.7828	713	America/Chicago
Blacksburg	VA	37.23	-80.4279	868	America/New_York
Quincy	MA	42.2506	-71.0187	2199	America/New_York
Plantation	FL	26.1259	-80.2617	1675	America/New_York
Dearborn	MI	42.3127	-83.213	1502	America/Detroit
Lynn	MA	42.4781	-70.9664	3386	America/New_York
Livonia	MI	42.3972	-83.3733	1016	America/Detroit
Missoula	MT	46.8751	-114.0214	839	America/Denver
Arden-Arcade	CA	38.6017	-121.3845	2275	America/Los_Angeles
Fishers	IN	39.9588	-85.9659	1013	America/Indiana/Indianapolis
Mayagüez	PR	18.2003	-67.1397	1101	America/Puerto_Rico
Terre Haute	IN	39.466	-87.3751	684	America/Indiana/Indianapolis
Edmond	OK	35.6689	-97.416	424	America/Chicago
Menifee	CA	33.6909	-117.1849	772	America/Los_Angeles
Vineland	NJ	39.4653	-74.9981	335	America/New_York
Santa Monica	CA	34.0235	-118.481	4205	America/Los_Angeles
Alafaya	FL	28.528	-81.1868	1152	America/New_York
Suffolk	VA	36.6953	-76.6398	88	America/New_York
Carson	CA	33.8374	-118.2559	1883	America/Los_Angeles
Kirkland	WA	47.697	-122.2057	1976	America/Los_Angeles
Westminster	CA	33.7523	-117.9938	3494	America/Los_Angeles
San Leandro	CA	37.7074	-122.1599	2622	America/Los_Angeles
Lawton	OK	34.6175	-98.4202	443	America/Chicago
Bismarck	ND	46.8143	-100.7694	817	America/Chicago
Dover	NH	43.1887	-70.8845	461	America/New_York
Town 'n' Country	FL	28.0106	-82.5763	1569	America/New_York
Fall River	MA	41.7136	-71.1015	1044	America/New_York
Rapid City	SD	44.0716	-103.2204	540	America/Denver
Germantown	MD	39.1755	-77.2643	2029	America/New_York
Miami Beach	FL	25.8171	-80.1396	4489	America/New_York
Mount Pleasant	SC	32.8537	-79.8203	697	America/New_York
Albany	GA	31.5776	-84.1762	509	America/New_York
Chino	CA	33.9836	-117.6654	1162	America/Los_Angeles
Norwalk	CT	41.1144	-73.4215	1497	America/New_York
Florence	SC	34.178	-79.7898	643	America/New_York
State College	PA	40.7909	-77.8567	3567	America/New_York
Livermore	CA	37.6868	-121.7607	1339	America/Los_Angeles
Conroe	TX	30.3238	-95.4824	473	America/Chicago
Newton	MA	42.3316	-71.2085	1912	America/New_York
O'Fallon	MO	38.785	-90.7175	1142	America/Chicago
Dalton	GA	34.769	-84.972	612	America/New_York
Citrus Heights	CA	38.6948	-121.288	2380	America/Los_Angeles
Jackson	MI	42.2431	-84.4038	1148	America/Detroit
Waukegan	IL	42.3698	-87.8716	1389	America/Chicago
Muncie	IN	40.1989	-85.395	954	America/Indiana/Indianapolis
Newport Beach	CA	33.6151	-117.8668	1406	America/Los_Angeles
Decatur	IL	39.8557	-88.9342	646	America/Chicago
Homosassa Springs	FL	28.8119	-82.5392	223	America/New_York
Port Huron	MI	42.9821	-82.4388	1378	America/Detroit
Anderson	IN	40.0891	-85.6892	505	America/Indiana/Indianapolis
Bryan	TX	30.665	-96.3807	610	America/Chicago
Hawthorne	CA	33.9147	-118.3476	5417	America/Los_Angeles
Hoover	AL	33.3763	-86.8068	685	America/Chicago
Napa	CA	38.2975	-122.301	1675	America/Los_Angeles
Bloomington	MN	44.8306	-93.3151	948	America/Chicago
Clifton	NJ	40.863	-74.1575	2917	America/New_York
Springfield	OH	39.93	-83.7959	876	America/New_York
Hattiesburg	MS	31.3074	-89.317	332	America/Chicago
Whittier	CA	33.9678	-118.0188	2235	America/Los_Angeles
Largo	FL	27.9088	-82.7712	1763	America/New_York
Lake Forest	CA	33.6605	-117.6714	1955	America/Los_Angeles
New Braunfels	TX	29.6994	-98.1148	723	America/Chicago
Johns Creek	GA	34.0333	-84.2027	1059	America/New_York
Redwood City	CA	37.5025	-122.2253	1687	America/Los_Angeles
Alhambra	CA	34.084	-118.1355	4275	America/Los_Angeles
Troy	MI	42.5817	-83.1457	970	America/Detroit
Mission	TX	26.2039	-98.3256	890	America/Chicago
Alton	IL	38.9037	-90.152	652	America/Chicago
Goodyear	AZ	33.2614	-112.3622	168	America/Phoenix
Fort Myers	FL	26.6194	-81.8302	809	America/New_York
Williamsburg	VA	37.2693	-76.7076	649	America/New_York
Chino Hills	CA	33.9508	-117.7254	716	America/Los_Angeles
Melbourne	FL	28.1086	-80.6627	719	America/New_York
Buena Park	CA	33.8572	-118.0046	3015	America/Los_Angeles
Kankakee	IL	41.102	-87.8643	662	America/Chicago
Atascocita	TX	29.9777	-95.1953	1323	America/Chicago
Loveland	CO	40.4166	-105.0623	917	America/Denver
Westland	MI	42.3192	-83.3805	1544	America/Detroit
Cicero	IL	41.8445	-87.7593	5363	America/Chicago
Pine Hills	FL	28.5818	-81.4692	2577	America/New_York
San Ramon	CA	37.7624	-121.9365	1680	America/Los_Angeles
Cranston	RI	41.7658	-71.4858	1106	America/New_York
Somerville	MA	42.3908	-71.1014	7602	America/New_York
Silver Spring	MD	39.0028	-77.0207	3970	America/New_York
Warwick	RI	41.7062	-71.4334	894	America/New_York
Joplin	MO	37.0757	-94.5018	512	America/Chicago
Farmington Hills	MI	42.486	-83.3771	939	America/Detroit
Auburn	WA	47.3039	-122.2108	1056	America/Los_Angeles
Deerfield Beach	FL	26.305	-80.1277	2087	America/New_York
Tustin	CA	33.7311	-117.8107	2795	America/Los_Angeles
Franklin	TN	35.92	-86.8516	728	America/Chicago
Anderson	SC	34.5211	-82.6478	730	America/New_York
Lebanon	PA	40.3412	-76.4228	2388	America/New_York
Springdale	AR	36.1901	-94.1574	660	America/Chicago
Yauco	PR	18.0344	-66.8615	2064	America/Puerto_Rico
Madera	CA	36.963	-120.0778	1536	America/Los_Angeles
Brooklyn Park	MN	45.1112	-93.3505	1187	America/Chicago
Mountain View	CA	37.4001	-122.0796	2586	America/Los_Angeles
Lawrence	MA	42.7002	-71.1626	4458	America/New_York
Pleasanton	CA	37.6663	-121.8805	1279	America/Los_Angeles
Alameda	CA	37.7668	-122.267	2949	America/Los_Angeles
Zephyrhills	FL	28.2409	-82.1797	652	America/New_York
Lakewood	CA	33.8471	-118.1222	3272	America/Los_Angeles
Flagstaff	AZ	35.1872	-111.6194	428	America/Phoenix
Florence	AL	34.8303	-87.6655	591	America/Chicago
Folsom	CA	38.6668	-121.1422	1102	America/Los_Angeles
New Rochelle	NY	40.9304	-73.7836	2979	America/New_York
St. Joseph	MO	39.7598	-94.821	660	America/Chicago
Texarkana	TX	33.45	-94.0847	452	America/Chicago
Plymouth	MN	45.0225	-93.4617	931	America/Chicago
Flower Mound	TX	33.0343	-97.1146	725	America/Chicago
Valdosta	GA	30.8502	-83.2788	604	America/New_York
Pharr	TX	26.1685	-98.1904	1285	America/Chicago
Parma	OH	41.3843	-81.7286	1516	America/New_York
Newark	OH	40.0706	-82.425	923	America/New_York
Elizabethtown	KY	37.7031	-85.8773	428	America/New_York
Davis	CA	38.5553	-121.737	2657	America/Los_Angeles
St. Augustine	FL	29.8976	-81.31	610	America/New_York
Boynton Beach	FL	26.5281	-80.0811	1865	America/New_York
Perris	CA	33.7898	-117.2233	951	America/Los_Angeles
Anniston	AL	33.6712	-85.8135	181	America/Chicago
Sumter	SC	33.9392	-80.393	470	America/New_York
Upland	CA	34.1178	-117.6604	1916	America/Los_Angeles
Layton	UT	41.077	-111.962	1326	America/Denver
Kendall	FL	25.6697	-80.3556	1852	America/New_York
Morgantown	WV	39.6383	-79.9464	1172	America/New_York
Cedar Park	TX	30.5105	-97.8197	1168	America/Chicago
Auburn	AL	32.6087	-85.4903	417	America/Chicago
Camarillo	CA	34.223	-119.0321	1345	America/Los_Angeles
Cheyenne	WY	41.135	-104.7902	767	America/Denver
Bellflower	CA	33.888	-118.1271	4818	America/Los_Angeles
Watsonville	CA	36.9206	-121.7708	3016	America/Los_Angeles
Hammond	IN	41.6168	-87.4909	1293	America/Chicago
Baytown	TX	29.7587	-94.9671	793	America/Chicago
Wausau	WI	44.962	-89.6459	777	America/Chicago
Wyoming	MI	42.8908	-85.7066	1186	America/Detroit
Alexandria	LA	31.2923	-92.4702	630	America/Chicago
Hammond	LA	30.5061	-90.4563	565	America/Chicago
Baldwin Park	CA	34.0829	-117.9722	4404	America/Los_Angeles
Carmichael	CA	38.6318	-121.3263	1904	America/Los_Angeles
Battle Creek	MI	42.2985	-85.2296	463	America/Detroit
Bethlehem	PA	40.6266	-75.3679	1526	America/New_York
Fajardo	PR	18.3331	-65.6589	1156	America/Puerto_Rico
Gary	IN	41.5905	-87.3473	585	America/Chicago
Georgetown	TX	30.666	-97.6966	508	America/Chicago
Missouri City	TX	29.563	-95.5365	1002	America/Chicago
Oshkosh	WI	44.0227	-88.5619	953	America/Chicago
Milpitas	CA	37.4336	-121.8921	2153	America/Los_Angeles
Arlington Heights	IL	42.0955	-87.9826	1745	America/Chicago
Union City	CA	37.6032	-122.0181	1510	America/Los_Angeles
Wheeling	WV	40.0752	-80.6951	758	America/New_York
Harrisonburg	VA	38.4362	-78.8735	1192	America/New_York
Winchester	VA	39.1735	-78.1746	1172	America/New_York
Buckeye	AZ	33.4314	-112.6429	73	America/Phoenix
Rancho Cordova	CA	38.5737	-121.2527	830	America/Los_Angeles
Pocatello	ID	42.8724	-112.4647	648	America/Boise
Rochester Hills	MI	42.6645	-83.1563	874	America/Detroit
Bolingbrook	IL	41.6901	-88.1021	1154	America/Chicago
Pasco	WA	46.2506	-119.1305	844	America/Los_Angeles
Hilton Head Island	SC	32.1896	-80.7499	373	America/New_York
Centreville	VA	38.839	-77.4389	2401	America/New_York
Mansfield	OH	40.7656	-82.5275	581	America/New_York
Evanston	IL	42.0464	-87.6943	3671	America/Chicago
Camden	NJ	39.9361	-75.1073	3191	America/New_York
South Jordan	UT	40.557	-111.9784	1282	America/Denver
Jonesboro	AR	35.8212	-90.6791	372	America/Chicago
Lake Jackson	TX	29.0516	-95.4521	533	America/Chicago
Schaumburg	IL	42.0308	-88.0838	1468	America/Chicago
Altoona	PA	40.5082	-78.4007	1722	America/New_York
Apple Valley	CA	34.5352	-117.2109	367	America/Los_Angeles
Conway	AR	35.0753	-92.4692	559	America/Chicago
Ellicott City	MD	39.2774	-76.8345	942	America/New_York
Owensboro	KY	37.7575	-87.1172	1124	America/Chicago
Caguas	PR	18.2319	-66.0388	2587	America/Puerto_Rico
Southfield	MI	42.4765	-83.2605	1073	America/Detroit
Framingham	MA	42.3085	-71.4368	1123	America/New_York
Cleveland	TN	35.1817	-84.8707	642	America/New_York
New Britain	CT	41.6759	-72.7862	2090	America/New_York
Waukesha	WI	43.0087	-88.2464	1095	America/Chicago
Dale City	VA	38.6473	-77.3459	1953	America/New_York
Janesville	WI	42.6854	-89.0135	728	America/Chicago
Lauderhill	FL	26.1605	-80.2241	3255	America/New_York
Pawtucket	RI	41.8744	-71.3743	3199	America/New_York
Juana Díaz	PR	18.0532	-66.5044	1913	America/Puerto_Rico
Pittsburg	CA	38.0182	-121.8965	1566	America/Los_Angeles
Redlands	CA	34.0512	-117.1712	768	America/Los_Angeles
Maple Grove	MN	45.1089	-93.4626	848	America/Chicago
Mansfield	TX	32.569	-97.1213	752	America/Chicago
Woodbury	MN	44.9057	-92.923	788	America/Chicago
Wenatchee	WA	47.436	-120.3295	1250	America/Los_Angeles
Jackson	TN	35.6538	-88.8354	442	America/Chicago
Weston	FL	26.1006	-80.4054	1114	America/New_York
San Marcos	TX	29.8734	-97.9356	694	America/Chicago
Wilmington	DE	39.7415	-75.5416	2503	America/New_York
St. Charles	MO	38.7954	-90.5157	1099	America/Chicago
Eldersburg	MD	39.4041	-76.9528	296	America/New_York
North Richland Hills	TX	32.8604	-97.218	1500	America/Chicago
Casas Adobes	AZ	32.3423	-111.0113	1021	America/Phoenix
Sheboygan	WI	43.7403	-87.7316	1188	America/Chicago
Lodi	CA	38.1218	-121.2932	1884	America/Los_Angeles
Walnut Creek	CA	37.9024	-122.0399	1364	America/Los_Angeles
Passaic	NJ	40.8574	-74.1282	8600	America/New_York
Bristol	TN	36.5572	-82.2154	318	America/New_York
Decatur	AL	34.5731	-86.9905	386	America/Chicago
West Bend	WI	43.4173	-88.1818	785	America/Chicago
Glen Burnie	MD	39.156	-76.6071	1553	America/New_York
Lynwood	CA	33.924	-118.2016	5553	America/Los_Angeles
Dothan	AL	31.2336	-85.407	294	America/Chicago
Broomfield	CO	39.9542	-105.0526	813	America/Denver
Lima	OH	40.741	-84.112	1046	America/New_York
Florida	PR	18.3643	-66.5611	1170	America/Puerto_Rico
Homestead	FL	25.4665	-80.4472	1764	America/New_York
Delray Beach	FL	26.455	-80.0905	1672	America/New_York
Daytona Beach	FL	29.1995	-81.0982	404	America/New_York
Bossier City	LA	32.5224	-93.6668	601	America/Chicago
Poinciana	FL	28.1217	-81.4821	366	America/New_York
Parkersburg	WV	39.2623	-81.542	974	America/New_York
Rockville	MD	39.0834	-77.1553	1934	America/New_York
Yorba Linda	CA	33.889	-117.7714	1317	America/Los_Angeles
Union City	NJ	40.7675	-74.0323	20421	America/New_York
Palo Alto	CA	37.3905	-122.1468	1089	America/Los_Angeles
Redmond	WA	47.6763	-122.1169	1583	America/Los_Angeles
Longview	WA	46.1461	-122.963	989	America/Los_Angeles
Bay City	MI	43.5902	-83.8887	1249	America/Detroit
Dubuque	IA	42.5002	-90.707	725	America/Chicago
Porterville	CA	36.0643	-119.0338	1222	America/Los_Angeles
Gaithersburg	MD	39.1346	-77.2131	2539	America/New_York
Palatine	IL	42.118	-88.043	1927	America/Chicago
Rogers	AR	36.317	-94.1531	672	America/Chicago
Mount Vernon	WA	48.4203	-122.3115	1114	America/Los_Angeles
El Paso de Robles	CA	35.6394	-120.656	618	America/Los_Angeles
Mount Vernon	NY	40.9136	-73.8291	5943	America/New_York
Sherman	TX	33.6273	-96.6221	361	America/Chicago
Rocklin	CA	38.8075	-121.2489	1307	America/Los_Angeles
Hanover	PA	39.8118	-76.9836	1637	America/New_York
Rome	GA	34.2662	-85.1863	445	America/New_York
Lehi	UT	40.4136	-111.8725	920	America/Denver
South San Francisco	CA	37.6538	-122.4196	2805	America/Los_Angeles
Kenner	LA	30.0109	-90.2549	1732	America/Chicago
Guaynabo	PR	18.3832	-66.1134	2139	America/Puerto_Rico
West Des Moines	IA	41.5521	-93.7806	545	America/Chicago
Redondo Beach	CA	33.8577	-118.3765	4148	America/Los_Angeles
DeKalb	IL	41.9314	-88.7481	1027	America/Chicago
Petaluma	CA	38.2423	-122.6266	1630	America/Los_Angeles
Alpharetta	GA	34.0704	-84.2738	955	America/New_York
Carbondale	IL	37.7221	-89.2237	563	America/Chicago
Tamarac	FL	26.2056	-80.2539	2213	America/New_York
Victoria	TX	28.8287	-96.9849	692	America/Chicago
Albany	OR	44.6272	-123.0965	1190	America/Los_Angeles
Eagan	MN	44.817	-93.1638	821	America/Chicago
Saratoga Springs	NY	43.0674	-73.7775	385	America/New_York
Corvallis	OR	44.5698	-123.2779	1586	America/Los_Angeles
North Little Rock	AR	34.7807	-92.2371	487	America/Chicago
Glens Falls	NY	43.3109	-73.6458	1436	America/New_York
Michigan City	IN	41.7092	-86.869	590	America/Chicago
Ames	IA	42.0256	-93.6217	928	America/Chicago
Shawnee	KS	39.0158	-94.8076	605	America/Chicago
Eastvale	CA	33.9617	-117.5803	2003	America/Los_Angeles
Lakeville	MN	44.6774	-93.252	698	America/Chicago
Weirton	WV	40.406	-80.5671	394	America/New_York
Rowlett	TX	32.9155	-96.5489	1217	America/Chicago
Guayama	PR	17.9743	-66.1104	2100	America/Puerto_Rico
Schenectady	NY	42.8025	-73.9275	2337	America/New_York
Sammamish	WA	47.6017	-122.0416	1233	America/Los_Angeles
Castle Rock	CO	39.3763	-104.8535	733	America/Denver
Jupiter	FL	26.92	-80.1128	1162	America/New_York
Bayonne	NJ	40.6668	-74.1158	4318	America/New_York
Bethesda	MD	38.9866	-77.1188	1895	America/New_York
Blaine	MN	45.1696	-93.2077	763	America/Chicago
Laguna Niguel	CA	33.5275	-117.705	1704	America/Los_Angeles
Wellington	FL	26.6461	-80.2699	558	America/New_York
San Clemente	CA	33.4499	-117.6102	1365	America/Los_Angeles
Florence-Graham	CA	33.9682	-118.2447	7127	America/Los_Angeles
Ankeny	IA	41.7288	-93.6031	826	America/Chicago
East Orange	NJ	40.7651	-74.2117	6355	America/New_York
Tulare	CA	36.1995	-119.34	1222	America/Los_Angeles
Eden Prairie	MN	44.8488	-93.4595	765	America/Chicago
Noblesville	IN	40.0355	-86.0042	724	America/Indiana/Indianapolis
Castro Valley	CA	37.7088	-122.0626	1475	America/Los_Angeles
Port Charlotte	FL	26.9918	-82.114	872	America/New_York
Lake Elsinore	CA	33.6847	-117.3344	648	America/Los_Angeles
Fairbanks	AK	64.8353	-147.6533	382	America/Anchorage
South Hill	WA	47.1198	-122.2853	1331	America/Los_Angeles
Twin Rivers	NJ	40.2631	-74.4917	2208	America/New_York
Bellevue	NE	41.1485	-95.939	1168	America/Chicago
Casper	WY	42.842	-106.3208	847	America/Denver
Dublin	CA	37.7161	-121.8963	1618	America/Los_Angeles
Dundalk	MD	39.2704	-76.4942	1882	America/New_York
Port Orange	FL	29.1085	-81.0137	919	America/New_York
Haverhill	MA	42.7838	-71.0871	745	America/New_York
Grand Forks	ND	47.9214	-97.0884	783	America/Chicago
The Hammocks	FL	25.67	-80.4482	3117	America/New_York
Pflugerville	TX	30.4515	-97.6018	961	America/Chicago
Elmira	NY	42.0938	-76.8097	1450	America/New_York
Skokie	IL	42.036	-87.74	2428	America/Chicago
Sebring	FL	27.477	-81.453	398	America/New_York
Brentwood	CA	37.9356	-121.719	1636	America/Los_Angeles
Encinitas	CA	33.0492	-117.261	1275	America/Los_Angeles
La Habra	CA	33.9282	-117.9515	3207	America/Los_Angeles
Brentwood	NY	40.7839	-73.2522	2212	America/New_York
Springfield	OR	44.0538	-122.9811	1528	America/Los_Angeles
Coon Rapids	MN	45.1755	-93.3094	1070	America/Chicago
Montebello	CA	34.0155	-118.1108	2906	America/Los_Angeles
Waltham	MA	42.3889	-71.2423	1896	America/New_York
Pico Rivera	CA	33.9901	-118.0888	2902	America/Los_Angeles
North Miami	FL	25.9008	-80.1686	2860	America/New_York
Council Bluffs	IA	41.2369	-95.8516	560	America/Chicago
Doral	FL	25.8152	-80.3565	1741	America/New_York
Hamilton	OH	39.3939	-84.5653	1118	America/New_York
Great Falls	MT	47.5022	-111.2996	985	America/Denver
Rocky Mount	NC	35.9685	-77.804	466	America/New_York
Chapel Hill	NC	35.9271	-79.0391	1107	America/New_York
Palm Harbor	FL	28.0847	-82.7481	1375	America/New_York
Moore	OK	35.3293	-97.4757	1085	America/Chicago
Burnsville	MN	44.7648	-93.2793	952	America/Chicago
Spring	TX	30.0613	-95.383	1056	America/Chicago
Reston	VA	38.9497	-77.3461	1545	America/New_York
National City	CA	32.6654	-117.0983	3246	America/Los_Angeles
Taylor	MI	42.226	-83.2688	999	America/Detroit
Coconut Creek	FL	26.2803	-80.1842	2106	America/New_York
Millcreek	UT	40.6892	-111.8292	1839	America/Denver
Malden	MA	42.4305	-71.0576	4646	America/New_York
Marietta	GA	33.9533	-84.5422	999	America/New_York
Leander	TX	30.5728	-97.8618	624	America/Chicago
Monterey Park	CA	34.0497	-118.1326	3049	America/Los_Angeles
Lakewood	WA	47.1628	-122.5299	1370	America/Los_Angeles
Wesley Chapel	FL	28.2106	-82.3238	532	America/New_York
Novi	MI	42.4786	-83.4893	771	America/Detroit
Sanford	FL	28.7891	-81.2757	987	America/New_York
La Mesa	CA	32.7703	-117.0204	2556	America/Los_Angeles
Bristol	CT	41.6812	-72.9407	877	America/New_York
Taylorsville	UT	40.6569	-111.9493	2132	America/Denver
West Allis	WI	43.0068	-88.0296	2030	America/Chicago
Cupertino	CA	37.3168	-122.0466	2038	America/Los_Angeles
Woodland	CA	38.6712	-121.75	1506	America/Los_Angeles
Pontiac	MI	42.6493	-83.2878	1159	America/Detroit
Meriden	CT	41.5369	-72.7946	968	America/New_York
Gardena	CA	33.8943	-118.3072	3934	America/Los_Angeles
Royal Oak	MI	42.5084	-83.1539	1940	America/Detroit
Bartlett	TN	35.2337	-89.8195	708	America/Chicago
St. Clair Shores	MI	42.4925	-82.8961	1956	America/Detroit
San Rafael	CA	37.9905	-122.5221	1377	America/Los_Angeles
Fountainebleau	FL	25.7723	-80.346	5773	America/New_York
Greenwood	IN	39.6019	-86.1073	813	America/Indiana/Indianapolis
South Whittier	CA	33.9336	-118.0312	4239	America/Los_Angeles
Margate	FL	26.2466	-80.2119	2576	America/New_York
Orland Park	IL	41.6075	-87.8619	1023	America/Chicago
Des Plaines	IL	42.0345	-87.9008	1581	America/Chicago
Medford	MA	42.4234	-71.1087	2778	America/New_York
White Plains	NY	41.022	-73.7547	2306	America/New_York
Bowie	MD	38.9549	-76.7406	1098	America/New_York
Kokomo	IN	40.464	-86.1277	611	America/Indiana/Indianapolis
Hendersonville	TN	36.3063	-86.5997	711	America/Chicago
Huntington Park	CA	33.98	-118.2167	7414	America/Los_Angeles
Towson	MD	39.3944	-76.619	1569	America/New_York
St. Peters	MO	38.7825	-90.6061	989	America/Chicago
Santee	CA	32.8554	-116.9851	1340	America/Los_Angeles
Midwest City	OK	35.463	-97.371	908	America/Chicago
Richland	WA	46.2824	-119.2939	564	America/Los_Angeles
Bradenton	FL	27.4901	-82.5757	1543	America/New_York
Taunton	MA	41.9036	-71.0943	473	America/New_York
Casa Grande	AZ	32.9069	-111.7624	199	America/Phoenix
Huntersville	NC	35.406	-80.8716	535	America/New_York
Arcadia	CA	34.1342	-118.0373	2015	America/Los_Angeles
Palm Beach Gardens	FL	26.8466	-80.1679	374	America/New_York
Shoreline	WA	47.7564	-122.3426	1886	America/Los_Angeles
Caldwell	ID	43.6453	-116.6594	958	America/Boise
Euless	TX	32.8508	-97.08	1349	America/Chicago
Smyrna	GA	33.8633	-84.5168	1398	America/New_York
Fountain Valley	CA	33.7105	-117.9514	2388	America/Los_Angeles
Tinley Park	IL	41.567	-87.8049	1345	America/Chicago
New Brunswick	NJ	40.487	-74.445	4131	America/New_York
Commerce City	CO	39.8641	-104.843	599	America/Denver
Diamond Bar	CA	33.9992	-117.8161	1450	America/Los_Angeles
Tamiami	FL	25.7556	-80.4016	3054	America/New_York
Kendale Lakes	FL	25.7081	-80.4078	2664	America/New_York
Dearborn Heights	MI	42.3164	-83.2769	1829	America/Detroit
Lake Havasu City	AZ	34.5006	-114.3113	462	America/Los_Angeles
Parker	CO	39.5084	-104.7753	958	America/Denver
Oak Lawn	IL	41.7139	-87.7528	2497	America/Chicago
Blue Springs	MO	39.0124	-94.2721	954	America/Chicago
Hacienda Heights	CA	33.997	-117.9727	1917	America/Los_Angeles
Highland	CA	34.1113	-117.165	1150	America/Los_Angeles
Kettering	OH	39.6956	-84.1494	1139	America/New_York
Carson City	NV	39.1511	-119.7476	147	America/Los_Angeles
Apex	NC	35.7237	-78.8743	969	America/New_York
Chicopee	MA	42.1764	-72.5719	930	America/New_York
Manhattan	KS	39.1886	-96.6048	1066	America/Chicago
Southaven	MS	34.9514	-89.9786	513	America/Chicago
Berwyn	IL	41.8433	-87.7909	5423	America/Chicago
Cathedral City	CA	33.8362	-116.4642	940	America/Los_Angeles
Lenexa	KS	38.9609	-94.8018	621	America/Chicago
Brookhaven	GA	33.8743	-84.3314	1808	America/New_York
Normal	IL	40.5217	-88.9884	1154	America/Chicago
West Haven	CT	41.2739	-72.9672	1963	America/New_York
Stonecrest	GA	33.6842	-84.1372	564	America/New_York
Westchester	FL	25.7471	-80.3523	2644	America/New_York
Yucaipa	CA	34.0336	-117.0429	742	America/Los_Angeles
Colton	CA	34.0538	-117.3255	1346	America/Los_Angeles
Mount Prospect	IL	42.0641	-87.9375	1951	America/Chicago
Grapevine	TX	32.9343	-97.0742	650	America/Chicago
Tigard	OR	45.4237	-122.7845	1650	America/Los_Angeles
Paramount	CA	33.8977	-118.1651	4406	America/Los_Angeles
Aspen Hill	MD	39.0927	-77.0826	2189	America/New_York
Rosemead	CA	34.0689	-118.0823	4028	America/Los_Angeles
Elyria	OH	41.376	-82.106	1013	America/New_York
Novato	CA	38.092	-122.5575	755	America/Los_Angeles
Minnetonka	MN	44.9322	-93.4598	771	America/Chicago
Leesburg	VA	39.1057	-77.5544	1673	America/New_York
Apple Valley	MN	44.7457	-93.2004	1229	America/Chicago
Aloha	OR	45.492	-122.8725	2819	America/Los_Angeles
Summerville	SC	33.0016	-80.1799	1050	America/New_York
West Sacramento	CA	38.5557	-121.5505	963	America/Los_Angeles
Pinellas Park	FL	27.8589	-82.7078	1281	America/New_York
Revere	MA	42.4189	-71.004	3614	America/New_York
Severn	MD	39.1355	-76.6956	1123	America/New_York
Hoboken	NJ	40.7452	-74.0281	16455	America/New_York
DeSoto	TX	32.5992	-96.8633	948	America/Chicago
Wheaton	IL	41.8561	-88.1085	1813	America/Chicago
St. Cloud	FL	28.2363	-81.2779	806	America/New_York
Palm Desert	CA	33.7378	-116.3695	764	America/Los_Angeles
Peabody	MA	42.5335	-70.9725	1260	America/New_York
Milford city 	CT	41.2255	-73.0625	932	America/New_York
Delano	CA	35.7662	-119.2635	1385	America/Los_Angeles
Apopka	FL	28.7015	-81.5316	589	America/New_York
West New York	NJ	40.7857	-74.0094	20495	America/New_York
Edina	MN	44.8914	-93.3602	1304	America/Chicago
Queen Creek	AZ	33.2454	-111.6173	499	America/Phoenix
Oak Park	IL	41.8872	-87.7899	4280	America/Chicago
Bentonville	AR	36.3547	-94.2305	594	America/Chicago
Placentia	CA	33.8807	-117.8553	3039	America/Los_Angeles
Kentwood	MI	42.8852	-85.5926	955	America/Detroit
Perth Amboy	NJ	40.5202	-74.2724	4272	America/New_York
Burien	WA	47.4762	-122.3394	1984	America/Los_Angeles
Levittown	NY	40.7241	-73.5125	2905	America/New_York
Wylie	TX	33.0362	-96.5161	897	America/Chicago
Grand Island	NE	40.9218	-98.3586	658	America/Chicago
Florissant	MO	38.7996	-90.3269	1575	America/Chicago
Wheaton	MD	39.0492	-77.0573	2865	America/New_York
Glendora	CA	34.1449	-117.8467	1010	America/Los_Angeles
Lacey	WA	47.0462	-122.7933	1140	America/Los_Angeles
Smyrna	TN	35.9687	-86.5264	594	America/Chicago
Madison	AL	34.7114	-86.7626	644	America/Chicago
Catalina Foothills	AZ	32.3046	-110.8838	467	America/Phoenix
Collierville	TN	35.047	-89.6987	537	America/Chicago
Methuen Town	MA	42.734	-71.1889	878	America/New_York
Hoffman Estates	IL	42.064	-88.1468	924	America/Chicago
Country Club	FL	25.9407	-80.3102	4661	America/New_York
Aliso Viejo	CA	33.5792	-117.7289	2808	America/Los_Angeles
Maricopa	AZ	33.0408	-112.0011	457	America/Phoenix
Galveston	TX	29.2484	-94.8913	473	America/Chicago
Plainfield	NJ	40.6154	-74.4157	3255	America/New_York
Stillwater	OK	36.1317	-97.0742	650	America/Chicago
Enid	OK	36.4063	-97.87	261	America/Chicago
Lakewood	OH	41.4822	-81.8008	3483	America/New_York
Coral Gables	FL	25.7037	-80.2715	1491	America/New_York
Levittown	PA	40.1533	-74.8531	1871	America/New_York
Rowland Heights	CA	33.9716	-117.8912	1473	America/Los_Angeles
Twin Falls	ID	42.5645	-114.4613	993	America/Boise
Little Elm	TX	33.1858	-96.9295	1064	America/Chicago
Kannapolis	NC	35.4764	-80.6408	587	America/New_York
Poway	CA	32.9871	-117.0201	491	America/Los_Angeles
North Bethesda	MD	39.0393	-77.1191	2163	America/New_York
Mishawaka	IN	41.6742	-86.1666	1073	America/Indiana/Indianapolis
West Lafayette	IN	40.4432	-86.9238	1411	America/Indiana/Indianapolis
Azusa	CA	34.1386	-117.9124	1981	America/Los_Angeles
Dunwoody	GA	33.9418	-84.3122	1466	America/New_York
Cerritos	CA	33.8678	-118.0686	2185	America/Los_Angeles
Wilson	NC	35.7311	-77.9284	613	America/New_York
Downers Grove	IL	41.7949	-88.0172	1298	America/Chicago
Troy	NY	42.7354	-73.6751	1836	America/New_York
Portage	MI	42.2	-85.5906	588	America/Detroit
Cuyahoga Falls	OH	41.1641	-81.5207	736	America/New_York
Bedford	TX	32.8464	-97.135	1891	America/Chicago
Cypress	CA	33.8171	-118.0386	2868	America/Los_Angeles
Lawrence	IN	39.8674	-85.9904	939	America/Indiana/Indianapolis
Murray	UT	40.6498	-111.8874	1534	America/Denver
St. Louis Park	MN	44.9488	-93.3649	1775	America/Chicago
Florin	CA	38.4832	-121.4043	2164	America/Los_Angeles
Columbus	IN	39.2093	-85.9183	670	America/Indiana/Indianapolis
San Jacinto	CA	33.797	-116.9916	725	America/Los_Angeles
North Highlands	CA	38.6713	-121.3721	2132	America/Los_Angeles
Draper	UT	40.4957	-111.8605	626	America/Denver
McLean	VA	38.9436	-77.1943	756	America/New_York
Tuckahoe	VA	37.5878	-77.5858	916	America/New_York
Antelope	CA	38.7153	-121.361	2737	America/Los_Angeles
East Lansing	MI	42.748	-84.4836	1392	America/Detroit
Palm Springs	CA	33.8017	-116.5382	197	America/Los_Angeles
Ceres	CA	37.5952	-120.962	1965	America/Los_Angeles
University	FL	28.0771	-82.4335	2948	America/New_York
Cedar Hill	TX	32.581	-96.9591	521	America/Chicago
Bozeman	MT	45.6833	-111.0558	905	America/Denver
Rancho Santa Margarita	CA	33.6318	-117.5988	1445	America/Los_Angeles
Beaumont	CA	33.9076	-116.9766	614	America/Los_Angeles
La Mirada	CA	33.9025	-118.0093	2382	America/Los_Angeles
Lincoln	CA	38.8774	-121.2937	769	America/Los_Angeles
Newark	CA	37.5201	-122.0307	1335	America/Los_Angeles
Wauwatosa	WI	43.0616	-88.0347	1405	America/Chicago
Niagara Falls	NY	43.0921	-79.0147	1315	America/Toronto
Jeffersonville	IN	38.3376	-85.7026	543	America/Kentucky/Louisville
Minot	ND	48.2375	-101.278	677	America/Chicago
Dublin	OH	40.1112	-83.1454	748	America/New_York
Covina	CA	34.0903	-117.8818	2622	America/Los_Angeles
Roswell	NM	33.373	-104.5294	620	America/Denver
Chesterfield	MO	38.6589	-90.5803	576	America/Chicago
East Providence	RI	41.8065	-71.3565	1378	America/New_York
Ocoee	FL	28.5796	-81.5332	1174	America/New_York
San Luis Obispo	CA	35.2669	-120.669	1375	America/Los_Angeles
Beavercreek	OH	39.731	-84.0624	687	America/New_York
Glenview	IL	42.0825	-87.8214	1302	America/Chicago
Marana	AZ	32.4355	-111.1558	150	America/Phoenix
Roseville	MI	42.5074	-82.9369	1851	America/Detroit
Burleson	TX	32.517	-97.3344	644	America/Chicago
East Honolulu	HI	21.2975	-157.7211	791	Pacific/Honolulu
El Dorado Hills	CA	38.675	-121.049	375	America/Los_Angeles
Mentor	OH	41.6893	-81.3362	653	America/New_York
Keller	TX	32.9335	-97.2256	986	America/Chicago
Euclid	OH	41.5903	-81.5188	1698	America/New_York
Salina	KS	38.8136	-97.6143	699	America/Chicago
Elmhurst	IL	41.8973	-87.9432	1759	America/Chicago
Middletown	CT	41.5476	-72.6549	436	America/New_York
Bothell	WA	47.7735	-122.2044	1313	America/Los_Angeles
Titusville	FL	28.5727	-80.8193	611	America/New_York
Everett	MA	42.4064	-71.0545	5230	America/New_York
Potomac	MD	39.0141	-77.1943	710	America/New_York
Littleton	CO	39.5915	-105.0188	1412	America/Denver
Horizon West	FL	28.4417	-81.6146	544	America/New_York
Biloxi	MS	30.4426	-88.9514	414	America/Chicago
Fort Pierce	FL	27.4255	-80.3431	744	America/New_York
Kyle	TX	29.9932	-97.8852	569	America/Chicago
Coachella	CA	33.6905	-116.143	586	America/Los_Angeles
Oro Valley	AZ	32.4208	-110.9767	501	America/Phoenix
Hilo	HI	19.6883	-155.0863	325	Pacific/Honolulu
Herriman	UT	40.4899	-112.017	806	America/Denver
Rockwall	TX	32.9169	-96.4374	591	America/Chicago
Pearl City	HI	21.4031	-157.9566	1911	Pacific/Honolulu
Lake Ridge	VA	38.6847	-77.3066	1910	America/New_York
Attleboro	MA	41.9311	-71.295	649	America/New_York
Sicklerville	NJ	39.7452	-74.9934	1000	America/New_York
Farmington	NM	36.7555	-108.1823	503	America/Denver
Oakland Park	FL	26.178	-80.1528	2303	America/New_York
Danville	CA	37.8121	-121.9698	959	America/Los_Angeles
Winter Garden	FL	28.5421	-81.5967	1064	America/New_York
Plainfield	IL	41.6207	-88.2253	700	America/Chicago
Morgan Hill	CA	37.1325	-121.6419	1336	America/Los_Angeles
Strongsville	OH	41.3128	-81.8313	700	America/New_York
San Bruno	CA	37.6256	-122.4313	3141	America/Los_Angeles
Whitney	NV	36.1008	-115.0379	2522	America/Los_Angeles
Haltom City	TX	32.8176	-97.2707	1385	America/Chicago
Hackensack	NJ	40.8891	-74.0462	4077	America/New_York
Sayreville	NJ	40.4656	-74.3237	1079	America/New_York
North Lauderdale	FL	26.2113	-80.2209	3691	America/New_York
Brea	CA	33.9254	-117.8655	1401	America/Los_Angeles
Cleveland Heights	OH	41.5113	-81.5636	2114	America/New_York
Ashburn	VA	39.0277	-77.4714	1112	America/New_York
Burke	VA	38.7773	-77.2633	1977	America/New_York
Wake Forest	NC	35.9632	-78.514	942	America/New_York
Bountiful	UT	40.8721	-111.8647	1287	America/Denver
Altamonte Springs	FL	28.6615	-81.3953	1867	America/New_York
Cutler Bay	FL	25.5765	-80.3356	1715	America/New_York
Urbandale	IA	41.639	-93.7812	752	America/Chicago
Riverton	UT	40.5176	-111.9636	1343	America/Denver
The Colony	TX	33.0925	-96.8976	1206	America/Chicago
Sierra Vista	AZ	31.563	-110.3153	110	America/Phoenix
Lombard	IL	41.8741	-88.0157	1652	America/Chicago
Peachtree Corners	GA	33.967	-84.232	1043	America/New_York
Concord	NH	43.2305	-71.5595	262	America/New_York
Prescott	AZ	34.5849	-112.4473	373	America/Phoenix
Moorhead	MN	46.8673	-96.7461	752	America/Chicago
Channelview	TX	29.7914	-95.1144	1162	America/Chicago
Salem	MA	42.5129	-70.9021	2018	America/New_York
Ormond Beach	FL	29.2985	-81.1014	480	America/New_York
Altadena	CA	34.1927	-118.1346	1962	America/Los_Angeles
Freeport	NY	40.6515	-73.585	3625	America/New_York
Fond du Lac	WI	43.7718	-88.4397	862	America/Chicago
Goose Creek	SC	32.9927	-80.0055	401	America/New_York
Campbell	CA	37.2802	-121.9539	2723	America/Los_Angeles
North Miami Beach	FL	25.9302	-80.1659	3413	America/New_York
Lompoc	CA	34.6618	-120.4714	1420	America/Los_Angeles
Brentwood	TN	35.9918	-86.7758	401	America/Chicago
Mankato	MN	44.1715	-93.9772	853	America/Chicago
Jefferson City	MO	38.5676	-92.1759	456	America/Chicago
Farmers Branch	TX	32.9272	-96.8804	1386	America/Chicago
Fairfield	OH	39.3301	-84.5409	789	America/New_York
Rohnert Park	CA	38.3479	-122.6965	2255	America/Los_Angeles
Woodbridge	VA	38.6409	-77.258	1819	America/New_York
Pittsfield	MA	42.4517	-73.2605	405	America/New_York
Hicksville	NY	40.7637	-73.5245	2414	America/New_York
Urbana	IL	40.1107	-88.1973	1385	America/Chicago
Schertz	TX	29.565	-98.2535	510	America/Chicago
Edmonds	WA	47.8115	-122.3533	1833	America/Los_Angeles
Linden	NJ	40.6251	-74.2383	1529	America/New_York
Pine Bluff	AR	34.2116	-92.0173	369	America/Chicago
West Babylon	NY	40.7129	-73.3585	1932	America/New_York
North Fort Myers	FL	26.7244	-81.8485	330	America/New_York
Odenton	MD	39.0661	-76.6938	1105	America/New_York
Annandale	VA	38.8324	-77.196	2078	America/New_York
Beverly	MA	42.5681	-70.8627	1076	America/New_York
Midland	MI	43.6241	-84.2319	470	America/Detroit
Apache Junction	AZ	33.3985	-111.535	460	America/Phoenix
Delaware	OH	40.2851	-83.0741	809	America/New_York
Spring Hill	TN	35.7437	-86.9116	602	America/Chicago
Bell Gardens	CA	33.9663	-118.155	6558	America/Los_Angeles
Puyallup	WA	47.1793	-122.2902	1138	America/Los_Angeles
Huntsville	TX	30.7009	-95.5567	377	America/Chicago
Trujillo Alto	PR	18.3599	-66.0096	2173	America/Puerto_Rico
Oakley	CA	37.9929	-121.6952	1013	America/Los_Angeles
Westfield	IN	40.0341	-86.1529	517	America/Indiana/Indianapolis
La Quinta	CA	33.6536	-116.2785	456	America/Los_Angeles
Mableton	GA	33.8133	-84.5655	777	America/New_York
Rancho Palos Verdes	CA	33.7554	-118.3634	1193	America/Los_Angeles
Woonsocket	RI	42.001	-71.4993	2074	America/New_York
Catonsville	MD	39.2646	-76.7424	1150	America/New_York
Woodlawn	MD	39.3054	-76.7489	1680	America/New_York
Coppell	TX	32.9639	-96.9903	1111	America/Chicago
Linton Hall	VA	38.7551	-77.575	1256	America/New_York
Shakopee	MN	44.7745	-93.4772	562	America/Chicago
Grove City	OH	39.8654	-83.069	914	America/New_York
Westfield	MA	42.1382	-72.7561	344	America/New_York
Belleville	IL	38.5164	-89.99	685	America/Chicago
Greenacres	FL	26.627	-80.1371	2681	America/New_York
Moline	IL	41.4821	-90.492	949	America/Chicago
Kearny	NJ	40.7528	-74.1202	1798	America/New_York
Shelton	CT	41.306	-73.1383	518	America/New_York
Weslaco	TX	26.1599	-97.9877	968	America/Chicago
Findlay	OH	41.0469	-83.6379	807	America/New_York
Oviedo	FL	28.658	-81.1872	1023	America/New_York
Manassas	VA	38.7479	-77.4838	1609	America/New_York
Bartlett	IL	41.9804	-88.2071	1004	America/Chicago
Bullhead City	AZ	35.1205	-114.5461	265	America/Phoenix
Wilkes-Barre	PA	41.2469	-75.876	2300	America/New_York
Buffalo Grove	IL	42.1675	-87.9615	1647	America/Chicago
Cedar Falls	IA	42.5195	-92.4536	541	America/Chicago
Maplewood	MN	44.9842	-93.0247	921	America/Chicago
Hutchinson	KS	38.0671	-97.9081	638	America/Chicago
Danville	VA	36.5831	-79.4088	366	America/New_York
Coram	NY	40.8812	-73.0059	1134	America/New_York
Fitchburg	MA	42.5912	-71.8156	563	America/New_York
Covington	KY	39.0334	-84.5166	1183	America/New_York
Huber Heights	OH	39.8595	-84.113	703	America/New_York
Westerville	OH	40.1241	-82.921	1238	America/New_York
Lancaster	OH	39.7248	-82.6049	828	America/New_York
Wentzville	MO	38.8153	-90.8669	774	America/Chicago
Woburn	MA	42.4869	-71.1543	1229	America/New_York
Gallatin	TN	36.3782	-86.4698	483	America/Chicago
Valrico	FL	27.9193	-82.2293	1125	America/New_York
Newnan	GA	33.3767	-84.7761	801	America/New_York
Holyoke	MA	42.2125	-72.6411	732	America/New_York
Quincy	IL	39.9336	-91.3799	982	America/Chicago
San Gabriel	CA	34.0949	-118.099	3737	America/Los_Angeles
Cape Girardeau	MO	37.3109	-89.5597	532	America/Chicago
Hollister	CA	36.8555	-121.3986	1944	America/Los_Angeles
Spanish Fork	UT	40.1101	-111.6405	954	America/Denver
Montclair	CA	34.0715	-117.6981	2795	America/Los_Angeles
Streamwood	IL	42.0209	-88.1779	1976	America/Chicago
Marion	IA	42.0451	-91.585	865	America/Chicago
Friendswood	TX	29.511	-95.1981	742	America/Chicago
Chelsea	MA	42.3959	-71.0325	6939	America/New_York
The Acreage	FL	26.774	-80.2779	449	America/New_York
Calexico	CA	32.6849	-115.4944	1784	America/Tijuana
Vineyard	CA	38.474	-121.324	819	America/Los_Angeles
New Berlin	WI	42.9726	-88.1291	421	America/Chicago
Hallandale Beach	FL	25.9854	-80.1423	3646	America/New_York
La Puente	CA	34.0323	-117.9533	4415	America/Los_Angeles
Crystal Lake	IL	42.2333	-88.3351	809	America/Chicago
Marlborough	MA	42.3494	-71.5468	734	America/New_York
Romeoville	IL	41.6318	-88.0997	802	America/Chicago
Indian Trail	NC	35.0699	-80.6452	688	America/New_York
Royal Palm Beach	FL	26.7038	-80.2241	1348	America/New_York
Columbia	TN	35.6238	-87.0484	460	America/Chicago
Lake Oswego	OR	45.4129	-122.7004	1413	America/Los_Angeles
Carol Stream	IL	41.9181	-88.1307	1670	America/Chicago
Los Banos	CA	37.063	-120.8406	1523	America/Los_Angeles
Plant City	FL	28.014	-82.1201	552	America/New_York
Meadow Woods	FL	28.3698	-81.3467	1362	America/New_York
Keizer	OR	45.0028	-123.0243	2117	America/Los_Angeles
Annapolis	MD	38.9706	-76.5047	2106	America/New_York
Essex	MD	39.3021	-76.4449	1639	America/New_York
Lancaster	TX	32.5922	-96.7739	458	America/Chicago
Milton	GA	34.1353	-84.3139	393	America/New_York
Roy	UT	41.1714	-112.0485	1862	America/Denver
Northglenn	CO	39.9108	-104.9783	2056	America/Denver
Germantown	TN	35.0829	-89.7824	757	America/Chicago
South Valley	NM	35.0093	-106.6819	520	America/Denver
Duncanville	TX	32.646	-96.9127	1347	America/Chicago
French Valley	CA	33.5999	-117.1069	1386	America/Los_Angeles
Warren	OH	41.239	-80.8174	942	America/New_York
Culver City	CA	34.0058	-118.3968	2939	America/Los_Angeles
Sun City	AZ	33.6165	-112.2819	1041	America/Phoenix
Hurst	TX	32.8353	-97.1809	1502	America/Chicago
Land O' Lakes	FL	28.2075	-82.4476	782	America/New_York
Severna Park	MD	39.087	-76.5687	904	America/New_York
Issaquah	WA	47.5439	-122.0471	1232	America/Los_Angeles
Clovis	NM	34.4376	-103.1923	632	America/Denver
Hot Springs	AR	34.4892	-93.0501	398	America/Chicago
Mission Bend	TX	29.6948	-95.6658	3212	America/Chicago
Wheeling	IL	42.1308	-87.924	1722	America/Chicago
Pacifica	CA	37.6113	-122.4782	1186	America/Los_Angeles
Security-Widefield	CO	38.7489	-104.7142	1148	America/Denver
Brookfield	WI	43.064	-88.1231	546	America/Chicago
Lynnwood	WA	47.8284	-122.3033	1889	America/Los_Angeles
Mooresville	NC	35.5847	-80.8266	597	America/New_York
Hobbs	NM	32.7281	-103.16	562	America/Denver
Pleasant Grove	UT	40.3716	-111.7412	1618	America/Denver
Evans	GA	33.5619	-82.1351	587	America/New_York
Martinez	CA	37.9985	-122.1161	1173	America/Los_Angeles
Pahrump	NV	36.2235	-115.9974	45	America/Los_Angeles
Brighton	CO	39.9716	-104.7963	696	America/Denver
Stanton	CA	33.8003	-117.9935	4770	America/Los_Angeles
Waipahu	HI	21.3859	-158.0101	5518	Pacific/Honolulu
Olive Branch	MS	34.961	-89.8469	397	America/Chicago
Tupelo	MS	34.2692	-88.7318	229	America/Chicago
Kendall West	FL	25.7065	-80.4388	5335	America/New_York
Reynoldsburg	OH	39.9588	-82.7943	1320	America/New_York
East Meadow	NY	40.7197	-73.5604	2327	America/New_York
Parkland	WA	47.1417	-122.4376	1695	America/Los_Angeles
Grants Pass	OR	42.4333	-123.3317	1271	America/Los_Angeles
Fort Lee	NJ	40.8509	-73.9713	5803	America/New_York
Rosenberg	TX	29.5456	-95.8223	391	America/Chicago
Hanover Park	IL	41.9818	-88.1446	2273	America/Chicago
Egypt Lake-Leto	FL	28.0177	-82.5062	2468	America/New_York
Clinton	MD	38.7499	-76.9063	582	America/New_York
Rock Island	IL	41.4699	-90.5827	861	America/Chicago
Monrovia	CA	34.165	-117.9921	1065	America/Los_Angeles
Carpentersville	IL	42.1227	-88.2896	1842	America/Chicago
Menomonee Falls	WI	43.1487	-88.1227	441	America/Chicago
Valley Stream	NY	40.6647	-73.7043	4162	America/New_York
Park Ridge	IL	42.0125	-87.8436	2039	America/Chicago
La Presa	CA	32.711	-117.0027	2627	America/Los_Angeles
Muskogee	OK	35.7432	-95.3567	335	America/Chicago
Meridian	MS	32.3846	-88.6896	267	America/Chicago
Aventura	FL	25.9566	-80.1371	5416	America/New_York
Mechanicsville	VA	37.6263	-77.3561	506	America/New_York
Richmond West	FL	25.6105	-80.4297	3435	America/New_York
Cottage Grove	MN	44.8161	-92.9274	426	America/Chicago
Greenfield	WI	42.9619	-88.0052	1242	America/Chicago
Oregon City	OR	45.3418	-122.5924	1424	America/Los_Angeles
Hilliard	OH	40.0353	-83.1578	1001	America/New_York
Commack	NY	40.8435	-73.2833	1163	America/New_York
Winter Springs	FL	28.6889	-81.2703	957	America/New_York
Beloit	WI	42.523	-89.0184	819	America/Chicago
San Juan	TX	26.1903	-98.152	1218	America/Chicago
Clermont	FL	28.5325	-81.7208	788	America/New_York
Waxahachie	TX	32.4035	-96.8446	286	America/Chicago
New Albany	IN	38.309	-85.8234	918	America/Kentucky/Louisville
Addison	IL	41.9313	-88.0085	1442	America/Chicago
Prattville	AL	32.4597	-86.4573	399	America/Chicago
Holly Springs	NC	35.6526	-78.8399	814	America/New_York
Lincoln Park	MI	42.2432	-83.1811	2416	America/Detroit
Portage	IN	41.5856	-87.1797	551	America/Chicago
Bartlesville	OK	36.7365	-95.9456	621	America/Chicago
Dunedin	FL	28.0329	-82.7862	1353	America/New_York
Oakton	VA	38.8887	-77.3016	1442	America/New_York
Phenix City	AL	32.4585	-85.0253	500	America/Chicago
Kearns	UT	40.6519	-112.0095	3039	America/Denver
Moorpark	CA	34.2861	-118.8768	1146	America/Los_Angeles
West Fargo	ND	46.8573	-96.9057	875	America/Chicago
Owasso	OK	36.2878	-95.8311	830	America/Chicago
Benton	AR	34.5776	-92.5713	613	America/Chicago
Oak Creek	WI	42.8803	-87.9009	492	America/Chicago
Winchester	NV	36.1365	-115.137	2826	America/Los_Angeles
Tucker	GA	33.8436	-84.2024	693	America/New_York
Richfield	MN	44.8763	-93.2829	2065	America/Chicago
Elmont	NY	40.7033	-73.7078	4104	America/New_York
Calumet City	IL	41.6134	-87.5505	1947	America/Chicago
Bettendorf	IA	41.5657	-90.4765	656	America/Chicago
Lewiston	ME	44.0915	-70.1681	408	America/New_York
Roseville	MN	45.0155	-93.1545	1071	America/Chicago
Leavenworth	KS	39.3239	-94.924	575	America/Chicago
Oakville	MO	38.4479	-90.3199	878	America/Chicago
Wildomar	CA	33.6173	-117.2582	587	America/Los_Angeles
Lauderdale Lakes	FL	26.1682	-80.2017	3782	America/New_York
Franklin	WI	42.8854	-88.0104	402	America/Chicago
Marion	OH	40.5973	-83.1227	1072	America/New_York
San Juan Capistrano	CA	33.5008	-117.6544	962	America/Los_Angeles
Peachtree City	GA	33.3942	-84.571	550	America/New_York
Mount Juliet	TN	36.199	-86.5115	552	America/Chicago
Del Rio	TX	29.3708	-100.8801	676	America/Chicago
Watertown Town	MA	42.37	-71.1774	3451	America/New_York
Richmond	KY	37.7307	-84.2925	679	America/New_York
Cooper City	FL	26.0463	-80.2862	1715	America/New_York
Foothill Farms	CA	38.6867	-121.3475	3282	America/Los_Angeles
El Mirage	AZ	33.5905	-112.3271	1392	America/Phoenix
Temple City	CA	34.1022	-118.0579	3442	America/Los_Angeles
South Miami Heights	FL	25.5886	-80.3862	2807	America/New_York
Randallstown	MD	39.3723	-76.8024	1346	America/New_York
Claremont	CA	34.1259	-117.7153	1031	America/Los_Angeles
Princeton	FL	25.5396	-80.3971	1851	America/New_York
La Vergne	TN	36.02	-86.5586	555	America/Chicago
Oildale	CA	35.4293	-119.0306	1733	America/Los_Angeles
West Hollywood	CA	34.0883	-118.3719	7262	America/Los_Angeles
Inver Grove Heights	MN	44.8247	-93.0596	491	America/Chicago
Wildwood	MO	38.58	-90.6698	205	America/Chicago
Oswego	IL	41.6834	-88.3372	919	America/Chicago
Richmond	IN	39.8318	-84.8905	570	America/Indiana/Indianapolis
Gahanna	OH	40.0251	-82.8637	1100	America/New_York
Eagle Mountain	UT	40.3137	-112.0114	271	America/Denver
Upper Arlington	OH	40.0272	-83.0704	1394	America/New_York
Carrollwood	FL	28.0577	-82.5148	1479	America/New_York
Olney	MD	39.1465	-77.0715	843	America/New_York
La Porte	TX	29.6689	-95.0484	733	America/Chicago
Monroe	NC	35.0063	-80.5596	445	America/New_York
Lufkin	TX	31.3217	-94.7277	398	America/Chicago
Tooele	UT	40.5393	-112.3082	564	America/Denver
Bell	CA	33.9801	-118.1798	5434	America/Los_Angeles
Gadsden	AL	34.0086	-86.0157	363	America/Chicago
Menlo Park	CA	37.4685	-122.1673	1360	America/Los_Angeles
Westmont	CA	33.9417	-118.3018	7355	America/Los_Angeles
Buenaventura Lakes	FL	28.3349	-81.3539	2431	America/New_York
Manhattan Beach	CA	33.8894	-118.3967	3441	America/Los_Angeles
East Point	GA	33.6696	-84.4701	920	America/New_York
Orangevale	CA	38.6881	-121.2209	1181	America/Los_Angeles
Riviera Beach	FL	26.7813	-80.0741	1633	America/New_York
Post Falls	ID	47.7213	-116.9384	890	America/Los_Angeles
Martinez	GA	33.5209	-82.0985	929	America/New_York
Pleasant Hill	CA	37.9539	-122.0759	1904	America/Los_Angeles
Brunswick	OH	41.2465	-81.8198	1039	America/New_York
Merrillville	IN	41.4728	-87.3196	404	America/Chicago
Redan	GA	33.7394	-84.1644	1664	America/New_York
Englewood	CO	39.6468	-104.9942	2049	America/Denver
Stow	OH	41.1765	-81.4344	785	America/New_York
Lebanon	TN	36.204	-86.3481	338	America/Chicago
Owings Mills	MD	39.4115	-76.7913	1405	America/New_York
Leawood	KS	38.9075	-94.6258	886	America/Chicago
Dakota Ridge	CO	39.6192	-105.1344	1425	America/Denver
Goldsboro	NC	35.3778	-77.9717	467	America/New_York
Goshen	IN	41.5743	-85.8309	759	America/Indiana/Indianapolis
Vestavia Hills	AL	33.4518	-86.7437	667	America/Chicago
McMinnville	OR	45.211	-123.1918	1257	America/Los_Angeles
Fair Oaks	VA	38.8653	-77.3586	2665	America/New_York
Montgomery Village	MD	39.1788	-77.1954	3422	America/New_York
Norristown	PA	40.1225	-75.3398	3777	America/New_York
Georgetown	KY	38.2247	-84.5487	782	America/New_York
University City	MO	38.6657	-90.3315	2255	America/Chicago
Socorro	TX	31.6383	-106.2601	603	America/Denver
Butte	MT	45.902	-112.6571	18	America/Denver
Torrington	CT	41.8349	-73.1282	332	America/New_York
Adelanto	CA	34.5814	-117.4397	250	America/Los_Angeles
Kennesaw	GA	34.026	-84.6177	1360	America/New_York
Chillum	MD	38.9666	-76.9791	3919	America/New_York
Plainfield	IN	39.6954	-86.3716	513	America/Indiana/Indianapolis
New City	NY	41.1542	-73.9912	850	America/New_York
Merritt Island	FL	28.3139	-80.6708	772	America/New_York
Pullman	WA	46.7336	-117.168	1200	America/Los_Angeles
Salisbury	NC	35.6658	-80.4905	601	America/New_York
North Ridgeville	OH	41.3852	-82.0195	559	America/New_York
Sun Prairie	WI	43.1825	-89.2362	1015	America/Chicago
Cookeville	TN	36.1482	-85.5109	366	America/Chicago
San Luis	AZ	32.4911	-114.7089	384	America/Phoenix
Cottonwood Heights	UT	40.6137	-111.8144	1416	America/Denver
Glendale Heights	IL	41.9196	-88.0785	2428	America/Chicago
Chester	PA	39.8456	-75.3718	2704	America/New_York
Golden Glades	FL	25.9129	-80.2013	2704	America/New_York
Newark	DE	39.6776	-75.7576	1385	America/New_York
Ken Caryl	CO	39.577	-105.1144	1327	America/Denver
San Dimas	CA	34.1082	-117.809	868	America/Los_Angeles
Kearney	NE	40.7011	-99.0833	897	America/Chicago
Dana Point	CA	33.4733	-117.6967	2010	America/Los_Angeles
Spanaway	WA	47.0979	-122.4233	1491	America/Los_Angeles
Beverly Hills	CA	34.0786	-118.4021	2280	America/Los_Angeles
Midvale	UT	40.6148	-111.8927	2200	America/Denver
Valparaiso	IN	41.4783	-87.0506	795	America/Chicago
University Place	WA	47.2147	-122.5461	1558	America/Los_Angeles
DeLand	FL	29.0225	-81.2875	682	America/New_York
Huntington Station	NY	40.8446	-73.405	2370	America/New_York
Deer Park	TX	29.6898	-95.1151	1234	America/Chicago
Mason	OH	39.3571	-84.3023	673	America/New_York
Central Islip	NY	40.7836	-73.1945	1812	America/New_York
Kaneohe	HI	21.4062	-157.7904	1979	Pacific/Honolulu
Long Beach	NY	40.5887	-73.666	5828	America/New_York
Lake Stevens	WA	48.0024	-122.0953	1409	America/Los_Angeles
Fairborn	OH	39.801	-84.0094	886	America/New_York
Estero	FL	26.4276	-81.7951	530	America/New_York
Woodridge	IL	41.737	-88.0409	1338	America/Chicago
Cedar City	UT	37.6834	-113.0956	359	America/Denver
Alabaster	AL	33.2198	-86.8225	509	America/Chicago
Hinesville	GA	31.8248	-81.6137	702	America/New_York
Springville	UT	40.1638	-111.6205	892	America/Denver
Prairieville	LA	30.3151	-90.9571	583	America/Chicago
Northbrook	IL	42.1292	-87.8352	968	America/Chicago
Foster City	CA	37.5553	-122.2659	3370	America/Los_Angeles
Fruit Cove	FL	30.0972	-81.6175	791	America/New_York
Douglasville	GA	33.7384	-84.7054	558	America/New_York
Andover	MN	45.2571	-93.3265	376	America/Chicago
Fair Lawn	NJ	40.9359	-74.1177	2480	America/New_York
Copperas Cove	TX	31.1192	-97.914	705	America/Chicago
Springfield	VA	38.781	-77.1839	1622	America/New_York
Walla Walla	WA	46.0671	-118.3368	918	America/Los_Angeles
Baldwin	NY	40.6511	-73.6075	3091	America/New_York
Nacogdoches	TX	31.6134	-94.6528	460	America/Chicago
Parkland	FL	26.3219	-80.2533	1015	America/New_York
Pikesville	MD	39.3893	-76.702	1027	America/New_York
Lewiston	ID	46.3934	-116.9933	732	America/Los_Angeles
Pueblo West	CO	38.3465	-104.7246	255	America/Denver
Pekin	IL	40.5678	-89.6251	805	America/Chicago
Florence	KY	38.9899	-84.6471	1181	America/New_York
Matthews	NC	35.1195	-80.7101	737	America/New_York
Helena	MT	46.5965	-112.0202	749	America/Denver
Uniondale	NY	40.7176	-73.5947	2205	America/New_York
St. Charles	IL	41.9193	-88.3109	874	America/Chicago
Manitowoc	WI	44.0991	-87.6812	706	America/Chicago
Lawndale	CA	33.8884	-118.3531	6369	America/Los_Angeles
South Riding	VA	38.912	-77.5132	1834	America/New_York
Laramie	WY	41.3099	-105.6085	683	America/Denver
Gillette	WY	44.2752	-105.4982	542	America/Denver
Graham	WA	47.0322	-122.2827	294	America/Los_Angeles
Massillon	OH	40.7838	-81.5254	661	America/New_York
Elk Grove Village	IL	42.0064	-87.9921	1076	America/Chicago
East Lake	FL	28.1206	-82.6868	435	America/New_York
Fallbrook	CA	33.3693	-117.2259	712	America/Los_Angeles
La Verne	CA	34.1207	-117.7703	1482	America/Los_Angeles
Woodstock	GA	34.1026	-84.5091	1000	America/New_York
Bethel Park	PA	40.3238	-80.0364	1066	America/New_York
Spring Valley	NY	41.1151	-74.0486	6201	America/New_York
West Little River	FL	25.8571	-80.2367	2718	America/New_York
Greer	SC	34.933	-82.2313	543	America/New_York
College Park	MD	38.996	-76.9337	2217	America/New_York
Eastpointe	MI	42.4657	-82.9461	2412	America/Detroit
Rome	NY	43.226	-75.4909	166	America/New_York
Lake Magdalene	FL	28.0875	-82.4791	1218	America/New_York
Westlake	OH	41.4524	-81.9294	779	America/New_York
Goleta	CA	34.4361	-119.8594	1580	America/Los_Angeles
Dania Beach	FL	26.0593	-80.1637	1588	America/New_York
Statesboro	GA	32.4375	-81.7751	827	America/New_York
Weatherford	TX	32.7536	-97.7723	457	America/Chicago
Juneau	AK	58.4546	-134.1739	4	America/Juneau
Bangor	ME	44.8323	-68.7906	360	America/New_York
Ferry Pass	FL	30.5205	-87.1899	888	America/Chicago
Des Moines	WA	47.3914	-122.3156	1925	America/Los_Angeles
Kaysville	UT	41.029	-111.9456	1174	America/Denver
Los Gatos	CA	37.2304	-121.9562	1067	America/Los_Angeles
Wheat Ridge	CO	39.7728	-105.1028	1317	America/Denver
Spring Valley	CA	32.7317	-116.9766	1675	America/Los_Angeles
Bay Shore	NY	40.7288	-73.2495	2163	America/New_York
Liberty	MO	39.2394	-94.4191	425	America/Chicago
Savage	MN	44.7545	-93.3632	785	America/Chicago
Marrero	LA	29.8871	-90.1126	1702	America/Chicago
Garfield	NJ	40.8791	-74.1085	5801	America/New_York
Southlake	TX	32.9545	-97.1503	560	America/Chicago
Harker Heights	TX	31.0572	-97.6446	783	America/Chicago
Bowling Green	OH	41.3776	-83.6495	955	America/New_York
American Fork	UT	40.3783	-111.7953	1091	America/Denver
Alamogordo	NM	32.8837	-105.9625	571	America/Denver
Clearfield	UT	41.103	-112.0238	1582	America/Denver
Laguna Hills	CA	33.5918	-117.6991	1863	America/Los_Angeles
Mundelein	IL	42.2693	-88.0102	1271	America/Chicago
North Olmsted	OH	41.4149	-81.919	1044	America/New_York
Franklin Square	NY	40.7002	-73.6775	4228	America/New_York
Midlothian	TX	32.4669	-96.989	191	America/Chicago
Aiken	SC	33.5303	-81.7271	580	America/New_York
Shawnee	OK	35.3531	-96.9647	277	America/Chicago
Redmond	OR	44.2612	-121.181	663	America/Los_Angeles
Orcutt	CA	34.8691	-120.4222	1118	America/Los_Angeles
Rochester	NH	43.299	-70.9787	268	America/New_York
Saratoga Springs	UT	40.345	-111.9154	519	America/Denver
West Falls Church	VA	38.8648	-77.1878	2418	America/New_York
Sherwood	AR	34.8507	-92.2029	581	America/Chicago
Naugatuck	CT	41.489	-73.0518	739	America/New_York
Princeton	NJ	40.3562	-74.6693	670	America/New_York
Centereach	NY	40.8681	-73.0821	1347	America/New_York
Saratoga	CA	37.2684	-122.0263	939	America/Los_Angeles
Lakeside	FL	30.1356	-81.7674	891	America/New_York
Hopkinsville	KY	36.8381	-87.4775	376	America/Chicago
Miami Lakes	FL	25.9125	-80.3214	2117	America/New_York
Danville	IL	40.1426	-87.6111	669	America/Chicago
San Pablo	CA	37.9629	-122.3426	4554	America/Los_Angeles
Fair Oaks	CA	38.6504	-121.2496	1096	America/Los_Angeles
Los Altos	CA	37.3684	-122.0965	1822	America/Los_Angeles
Sterling	VA	39.0052	-77.405	2185	America/New_York
Algonquin	IL	42.1629	-88.3159	968	America/Chicago
Cleburne	TX	32.3568	-97.4151	333	America/Chicago
Petersburg	VA	37.2043	-77.3913	523	America/New_York
Drexel Heights	AZ	32.1453	-111.048	618	America/Phoenix
Winter Park	FL	28.5989	-81.3442	1356	America/New_York
Brooklyn Center	MN	45.0681	-93.3162	1483	America/Chicago
Ithaca	NY	42.4442	-76.5032	2200	America/New_York
Sahuarita	AZ	31.9323	-110.9654	373	America/Phoenix
Bel Air North	MD	39.5543	-76.3732	740	America/New_York
Opelika	AL	32.6612	-85.3769	199	America/Chicago
Fleming Island	FL	30.0988	-81.7124	745	America/New_York
Nicholasville	KY	37.8906	-84.5668	808	America/New_York
Gurnee	IL	42.3708	-87.9392	872	America/Chicago
Granger	IN	41.7374	-86.1348	476	America/Indiana/Indianapolis
LaGrange	GA	33.0274	-85.0384	279	America/New_York
Holladay	UT	40.66	-111.8226	1383	America/Denver
Parkville	MD	39.3832	-76.5519	2744	America/New_York
Atascadero	CA	35.4827	-120.6858	450	America/Los_Angeles
Kingman	AZ	35.217	-114.0105	312	America/Phoenix
Long Branch	NJ	40.2965	-73.9915	2292	America/New_York
Galesburg	IL	40.9506	-90.3763	661	America/Chicago
Golden Gate	FL	26.1844	-81.7031	3003	America/New_York
Crown Point	IN	41.4143	-87.3457	649	America/Chicago
Syracuse	UT	41.0859	-112.0698	1152	America/Denver
Milford Mill	MD	39.3444	-76.7668	1687	America/New_York
Garner	NC	35.6936	-78.6181	707	America/New_York
North Tonawanda	NY	43.0457	-78.8659	1160	America/New_York
Atwater	CA	37.3529	-120.5959	1783	America/Los_Angeles
Cibolo	TX	29.5634	-98.2115	560	America/Chicago
Santa Paula	CA	34.3545	-119.0656	2115	America/Los_Angeles
Gloucester	MA	42.626	-70.6897	446	America/New_York
Banning	CA	33.946	-116.8992	503	America/Los_Angeles
Fountain	CO	38.6886	-104.6829	518	America/Denver
North Royalton	OH	41.3138	-81.745	544	America/New_York
Ballwin	MO	38.595	-90.55	1298	America/Chicago
Lawrenceville	GA	33.9523	-83.9932	853	America/New_York
San Lorenzo	CA	37.6733	-122.1332	3817	America/Los_Angeles
Burlingame	CA	37.5859	-122.3667	2642	America/Los_Angeles
Fitchburg	WI	42.9859	-89.4255	332	America/Chicago
Madison Heights	MI	42.5073	-83.1034	1634	America/Detroit
Kahului	HI	20.8715	-156.4603	804	Pacific/Honolulu
New Bern	NC	35.0955	-77.0723	407	America/New_York
North Chicago	IL	42.3172	-87.8595	1447	America/Chicago
Morristown	TN	36.2043	-83.3001	417	America/New_York
East Niles	CA	35.3683	-118.9225	2114	America/Los_Angeles
Chamblee	GA	33.8842	-84.3007	1499	America/New_York
Texarkana	AR	33.436	-93.9959	274	America/Chicago
Greenville	MS	33.385	-91.0514	428	America/Chicago
Oceanside	NY	40.6328	-73.6364	2337	America/New_York
Cornelius	NC	35.4724	-80.8813	911	America/New_York
Eastern Goleta Valley	CA	34.4448	-119.7879	693	America/Los_Angeles
Walnut	CA	34.0334	-117.8593	1278	America/Los_Angeles
Sanford	NC	35.4875	-79.177	392	America/New_York
East Lake-Orient Park	FL	27.997	-82.3653	719	America/New_York
Kent	OH	41.149	-81.361	1243	America/New_York
Rahway	NJ	40.6077	-74.2807	2942	America/New_York
Westfield	NJ	40.6516	-74.3432	1704	America/New_York
Middle River	MD	39.3436	-76.4253	897	America/New_York
San Carlos	CA	37.4982	-122.2677	2115	America/Los_Angeles
Carney	MD	39.405	-76.5235	1632	America/New_York
Chicago Heights	IL	41.51	-87.6345	1111	America/Chicago
Highland Park	IL	42.1823	-87.8104	933	America/Chicago
Duluth	GA	34.0053	-84.1492	1115	America/New_York
O'Fallon	IL	38.5974	-89.9148	731	America/Chicago
Crofton	MD	39.0144	-76.68	1721	America/New_York
Austintown	OH	41.0932	-80.7405	979	America/New_York
Canton	GA	34.2467	-84.4897	621	America/New_York
Suisun City	CA	38.2473	-122.0091	2839	America/Los_Angeles
Seguin	TX	29.5891	-97.9676	297	America/Chicago
East Palo Alto	CA	37.4671	-122.1352	4497	America/Los_Angeles
Stockbridge	GA	33.5254	-84.2295	829	America/New_York
Oak Park	MI	42.4649	-83.1824	2208	America/Detroit
Pasadena	MD	39.1552	-76.5537	761	America/New_York
Maryville	TN	35.7468	-83.9789	656	America/New_York
Eagle Pass	TX	28.7125	-100.484	1201	America/Matamoros
Fortuna Foothills	AZ	32.6616	-114.3974	282	America/Phoenix
Jamestown	NY	42.0976	-79.2367	1270	America/New_York
Desert Hot Springs	CA	33.955	-116.5429	373	America/Los_Angeles
Carlsbad	NM	32.401	-104.2388	358	America/Denver
Central	LA	30.5593	-91.0369	181	America/Chicago
Laplace	LA	30.0731	-90.4758	540	America/Chicago
Russellville	AR	35.2762	-93.1383	398	America/Chicago
Port Chester	NY	41.0051	-73.668	4844	America/New_York
Niles	IL	42.0278	-87.8099	1927	America/Chicago
Raytown	MO	38.9944	-94.4641	1134	America/Chicago
Southgate	MI	42.2047	-83.2057	1635	America/Detroit
Oak Ridge	TN	35.9639	-84.2938	131	America/New_York
Fuquay-Varina	NC	35.5953	-78.7778	638	America/New_York
SeaTac	WA	47.4444	-122.2986	1116	America/Los_Angeles
Rexburg	ID	43.8226	-111.7919	1116	America/Boise
New Iberia	LA	30.0049	-91.8202	1003	America/Chicago
Ridgecrest	CA	35.6308	-117.6622	534	America/Los_Angeles
Mehlville	MO	38.5018	-90.3149	1489	America/Chicago
Paragould	AR	36.0555	-90.5149	349	America/Chicago
Bella Vista	AR	36.4667	-94.2707	245	America/Chicago
Summerlin South	NV	36.1242	-115.3324	1144	America/Los_Angeles
Forest Hills	MI	42.9577	-85.4895	224	America/Detroit
Shirley	NY	40.7936	-72.8748	977	America/New_York
Lake in the Hills	IL	42.1913	-88.3477	1082	America/Chicago
Burton	MI	42.9974	-83.6175	472	America/Detroit
Monterey	CA	36.5919	-121.8808	1276	America/Los_Angeles
Granite City	IL	38.7296	-90.1268	579	America/Chicago
Schererville	IN	41.4861	-87.4442	738	America/Chicago
Northampton	MA	42.3266	-72.6745	321	America/New_York
Casselberry	FL	28.6624	-81.3217	1579	America/New_York
Henderson	KY	37.8397	-87.5798	682	America/Chicago
Burbank	IL	41.7444	-87.7686	2634	America/Chicago
Jacksonville	AR	34.8807	-92.1304	383	America/Chicago
Williamsport	PA	41.2399	-77.037	1250	America/New_York
Temescal Valley	CA	33.7581	-117.4677	567	America/Los_Angeles
Englewood	NJ	40.8917	-73.9736	2225	America/New_York
Harrison	NY	41.0236	-73.7193	653	America/New_York
Aberdeen	SD	45.4649	-98.4686	661	America/Chicago
Washington	UT	37.1303	-113.4878	312	America/Denver
Enterprise	AL	31.3275	-85.8463	351	America/Chicago
Benicia	CA	38.0725	-122.1526	848	America/Los_Angeles
Oakleaf Plantation	FL	30.1689	-81.8337	661	America/New_York
Eagle	ID	43.7223	-116.3866	352	America/Boise
Hobart	IN	41.514	-87.2729	414	America/Chicago
Independence	KY	38.951	-84.5492	618	America/New_York
Greenville	TX	33.1116	-96.1099	335	America/Chicago
Immokalee	FL	26.4253	-81.4251	476	America/New_York
Melrose	MA	42.4556	-71.059	2312	America/New_York
Bethany	OR	45.5614	-122.837	1989	America/Los_Angeles
East Chicago	IN	41.6469	-87.4545	768	America/Chicago
Zionsville	IN	39.9897	-86.3182	161	America/Indiana/Indianapolis
Middletown	NY	41.4459	-74.4236	2038	America/New_York
Jeffersontown	KY	38.2049	-85.5701	1042	America/New_York
Oakdale	MN	44.9876	-92.9641	983	America/Chicago
Drexel Hill	PA	39.9495	-75.3038	3371	America/New_York
Big Spring	TX	32.2389	-101.4799	569	America/Chicago
Williston	ND	48.1814	-103.6364	463	America/Chicago
Reisterstown	MD	39.455	-76.814	2108	America/New_York
Fridley	MN	45.0841	-93.2595	1054	America/Chicago
Perry Hall	MD	39.4068	-76.478	1546	America/New_York
Kirkwood	MO	38.5788	-90.4203	1168	America/Chicago
Glen Ellyn	IL	41.8666	-88.0629	1563	America/Chicago
Rockledge	FL	28.3203	-80.736	810	America/New_York
Marion	IN	40.5497	-85.6604	682	America/Indiana/Indianapolis
Frankfort	KY	38.1924	-84.8643	724	America/New_York
Garfield Heights	OH	41.4199	-81.6038	1477	America/New_York
Oxford	MS	34.3627	-89.5336	401	America/Chicago
Windsor	CA	38.5422	-122.8089	1434	America/Los_Angeles
Lansing	IL	41.5648	-87.5462	1428	America/Chicago
Tualatin	OR	45.3772	-122.7748	1287	America/Los_Angeles
South Laurel	MD	39.0603	-76.8456	1320	America/New_York
Converse	TX	29.5091	-98.3084	1259	America/Chicago
Morrisville	NC	35.8368	-78.8348	1206	America/New_York
Monroeville	PA	40.4262	-79.7605	539	America/New_York
Yukon	OK	35.5201	-97.7639	400	America/Chicago
Wasco	CA	35.5938	-119.3671	1133	America/Los_Angeles
Millville	NJ	39.3903	-75.0561	252	America/New_York
Mililani Town	HI	21.4465	-158.0147	2644	Pacific/Honolulu
Huntley	IL	42.1599	-88.433	740	America/Chicago
Oak Forest	IL	41.6054	-87.7527	1757	America/Chicago
Short Pump	VA	37.6549	-77.6201	1179	America/New_York
Bergenfield	NJ	40.9236	-73.9982	3639	America/New_York
Gladstone	MO	39.2134	-94.5592	1307	America/Chicago
Imperial Beach	CA	32.5693	-117.118	2459	America/Los_Angeles
Citrus Park	FL	28.073	-82.5628	1038	America/New_York
Bixby	OK	35.9454	-95.8776	423	America/Chicago
Easton	PA	40.6858	-75.2209	2470	America/New_York
Mint Hill	NC	35.1783	-80.6528	431	America/New_York
Horn Lake	MS	34.9512	-90.0501	656	America/Chicago
New Smyrna Beach	FL	29.0249	-80.9652	278	America/New_York
Ramsey	MN	45.2617	-93.4494	364	America/Chicago
Dodge City	KS	37.7611	-100.0182	713	America/Chicago
Glen Cove	NY	40.8709	-73.6287	1575	America/New_York
Erie	CO	40.0404	-105.0399	531	America/Denver
Shaker Heights	OH	41.4744	-81.5496	1666	America/New_York
Plum	PA	40.5024	-79.7495	366	America/New_York
Maywood	CA	33.9886	-118.1877	8938	America/Los_Angeles
Statesville	NC	35.7842	-80.8713	421	America/New_York
Wilmette	IL	42.0771	-87.7282	1937	America/Chicago
Allen Park	MI	42.2595	-83.2107	1495	America/Detroit
Mason City	IA	43.1487	-93.1997	375	America/Chicago
Magna	UT	40.7634	-112.1599	690	America/Denver
Norco	CA	33.9252	-117.5498	752	America/Los_Angeles
Mount Pleasant	WI	42.7129	-87.8876	307	America/Chicago
New London	CT	41.3502	-72.1022	1854	America/New_York
West Chicago	IL	41.896	-88.2253	677	America/Chicago
Maryland Heights	MO	38.7189	-90.4749	476	America/Chicago
Belmont	CA	37.5154	-122.2953	2248	America/Los_Angeles
Marshalltown	IA	42.0343	-92.9068	542	America/Chicago
Eureka	CA	40.7943	-124.1564	1090	America/Los_Angeles
Shoreview	MN	45.0842	-93.1358	965	America/Chicago
Temple Terrace	FL	28.0436	-82.3773	1419	America/New_York
McHenry	IL	42.3387	-88.2932	716	America/Chicago
Lindenhurst	NY	40.6858	-73.371	2770	America/New_York
Ilchester	MD	39.2187	-76.7683	964	America/New_York
Carrollton	GA	33.5818	-85.0838	462	America/New_York
Thomasville	NC	35.8813	-80.0807	617	America/New_York
New Lenox	IL	41.5095	-87.9703	657	America/Chicago
Hutto	TX	30.5396	-97.544	837	America/Chicago
Florence	AZ	33.059	-111.4209	165	America/Phoenix
Prior Lake	MN	44.7246	-93.4419	633	America/Chicago
Winona	MN	44.0505	-91.6684	543	America/Chicago
Colleyville	TX	32.8913	-97.1486	787	America/Chicago
West Linn	OR	45.367	-122.6399	1391	America/Los_Angeles
Chaska	MN	44.8164	-93.6091	606	America/Chicago
Xenia	OH	39.6829	-83.9413	793	America/New_York
Twentynine Palms	CA	34.1478	-116.0659	175	America/Los_Angeles
Sanger	CA	36.699	-119.5575	1790	America/Los_Angeles
Maple Valley	WA	47.3659	-122.0368	1719	America/Los_Angeles
Lemon Grove	CA	32.7331	-117.0344	2661	America/Los_Angeles
Leisure City	FL	25.4935	-80.4363	3161	America/New_York
Bayonet Point	FL	28.3254	-82.6834	1789	America/New_York
Athens	AL	34.7843	-86.9503	255	America/Chicago
West Islip	NY	40.7041	-73.2954	1686	America/New_York
Alvin	TX	29.3872	-95.2938	422	America/Chicago
Daphne	AL	30.6263	-87.8816	540	America/Chicago
Garden City	MI	42.3244	-83.3412	1749	America/Detroit
Brownsburg	IN	39.8337	-86.383	630	America/Indiana/Indianapolis
Wooster	OH	40.8172	-81.9336	600	America/New_York
Lakewood Ranch	FL	27.4185	-82.3948	222	America/New_York
Batavia	IL	41.8479	-88.3109	962	America/Chicago
Pearl	MS	32.273	-90.0918	400	America/Chicago
Paramus	NJ	40.9455	-74.0712	976	America/New_York
Garden City	KS	37.9753	-100.8527	934	America/Chicago
Vernon Hills	IL	42.234	-87.9608	1316	America/Chicago
Auburn	NY	42.9338	-76.5685	1222	America/New_York
Cabot	AR	34.9766	-92.0274	492	America/Chicago
Fremont	NE	41.4395	-96.4873	953	America/Chicago
East St. Louis	IL	38.6155	-90.1304	731	America/Chicago
Ewa Gentry	HI	21.3344	-158.0262	4780	Pacific/Honolulu
Canyon Lake	TX	29.8761	-98.2611	71	America/Chicago
Orchards	WA	45.689	-122.5306	1896	America/Los_Angeles
Plainview	NY	40.7832	-73.4732	1771	America/New_York
Superior	WI	46.6941	-92.0823	276	America/Chicago
Galt	CA	38.2698	-121.3004	1417	America/Los_Angeles
Clarksburg	MD	39.2246	-77.2659	1049	America/New_York
Troy	OH	40.0437	-84.2186	844	America/New_York
Stevens Point	WI	44.5241	-89.5507	588	America/Chicago
Sun City Center	FL	27.715	-82.3569	640	America/New_York
West Whittier-Los Nietos	CA	33.9759	-118.0689	4001	America/Los_Angeles
West Odessa	TX	31.8389	-102.5003	162	America/Chicago
Hercules	CA	38.0064	-122.2564	1570	America/Los_Angeles
Neenah	WI	44.1669	-88.4767	1074	America/Chicago
Bessemer	AL	33.3712	-86.9728	249	America/Chicago
Terrytown	LA	29.9014	-90.0279	2744	America/Chicago
Deer Park	NY	40.7623	-73.3218	1630	America/New_York
Sun City West	AZ	33.6695	-112.3573	917	America/Phoenix
Barberton	OH	41.0095	-81.6037	1114	America/New_York
Medina	OH	41.1358	-81.8695	867	America/New_York
Woodburn	OR	45.1472	-122.8603	1714	America/Los_Angeles
Northport	AL	33.2586	-87.5993	574	America/Chicago
Chanhassen	MN	44.8546	-93.5621	492	America/Chicago
Cloverleaf	TX	29.7882	-95.1724	3260	America/Chicago
Lafayette	CA	37.8919	-122.1189	666	America/Los_Angeles
Brawley	CA	32.9783	-115.5287	1233	America/Los_Angeles
Kiryas Joel	NY	41.3411	-74.1667	6843	America/New_York
Columbine	CO	39.5879	-105.0694	1507	America/Denver
Sachse	TX	32.9726	-96.5793	1023	America/Chicago
Holt	MI	42.6416	-84.5308	638	America/Detroit
Prosper	TX	33.2394	-96.8087	396	America/Chicago
Asheboro	NC	35.7158	-79.8127	528	America/New_York
Lemoore	CA	36.2949	-119.7983	1133	America/Los_Angeles
Socastee	SC	33.6871	-79.0086	746	America/New_York
Mercer Island	WA	47.5661	-122.232	1561	America/Los_Angeles
Holbrook	NY	40.7944	-73.07	1446	America/New_York
Hanahan	SC	32.9302	-80.0027	943	America/New_York
Green	OH	40.9483	-81.4757	310	America/New_York
Laurel	MD	39.0949	-76.8622	2063	America/New_York
White Bear Lake	MN	45.0656	-93.015	1233	America/Chicago
Owatonna	MN	44.0912	-93.2312	667	America/Chicago
Reedley	CA	36.5988	-119.4471	1801	America/Los_Angeles
Soledad	CA	36.4432	-121.3426	2221	America/Los_Angeles
South Portland	ME	43.631	-70.2895	821	America/New_York
Moscow	ID	46.7308	-116.9986	1433	America/Los_Angeles
Madison	MS	32.4738	-90.13	392	America/Chicago
Fairland	MD	39.0803	-76.9527	1994	America/New_York
Ruskin	FL	27.7065	-82.4209	547	America/New_York
Sebastian	FL	27.7822	-80.4819	626	America/New_York
Lochearn	MD	39.3461	-76.7307	1768	America/New_York
McDonough	GA	33.4397	-84.1505	768	America/New_York
Coral Terrace	FL	25.7464	-80.3049	2934	America/New_York
Lockport	IL	41.5906	-88.0293	853	America/Chicago
Starkville	MS	33.4608	-88.8297	385	America/Chicago
South Pasadena	CA	34.1103	-118.1573	2885	America/Los_Angeles
Cliffside Park	NJ	40.8222	-73.9879	10264	America/New_York
Melrose Park	IL	41.903	-87.8636	2253	America/Chicago
Woodstock	IL	42.3096	-88.4353	743	America/Chicago
Tarpon Springs	FL	28.1493	-82.7623	1074	America/New_York
Bay Point	CA	38.0329	-121.9615	1524	America/Los_Angeles
Keystone	FL	28.1312	-82.5999	279	America/New_York
Kingsville	TX	27.5094	-97.861	705	America/Chicago
Edwardsville	IL	38.7922	-89.9874	493	America/Chicago
Clinton	IA	41.8435	-90.2412	274	America/Chicago
Salem	VA	37.2864	-80.0555	672	America/New_York
Mount Pleasant	MI	43.5966	-84.7759	1264	America/Detroit
El Cerrito	CA	37.9196	-122.3025	2658	America/Los_Angeles
Franklin	IN	39.4948	-86.0544	695	America/Indiana/Indianapolis
Suitland	MD	38.8492	-76.9225	2298	America/New_York
Zanesville	OH	39.9565	-82.0132	827	America/New_York
Tysons	VA	38.9215	-77.2273	2283	America/New_York
Watertown	NY	43.9734	-75.9094	1078	America/New_York
Hazelwood	MO	38.7931	-90.3899	607	America/Chicago
Cave Spring	VA	37.2254	-80.0072	814	America/New_York
Caledonia	WI	42.7986	-87.8762	214	America/Chicago
Austin	MN	43.6721	-92.9784	729	America/Chicago
Haines City	FL	28.1102	-81.6157	518	America/New_York
Homewood	AL	33.4619	-86.809	1174	America/Chicago
Palm Springs	FL	26.6348	-80.0969	2309	America/New_York
Fountain Hills	AZ	33.6073	-111.7398	479	America/Phoenix
North Tustin	CA	33.7636	-117.7947	1475	America/Los_Angeles
Bloomingdale	FL	27.8784	-82.2624	1192	America/New_York
Riverside	OH	39.7835	-84.1219	997	America/New_York
South Salt Lake	UT	40.7057	-111.8986	1397	America/Denver
Balch Springs	TX	32.7194	-96.6151	1074	America/Chicago
Ridgewood	NJ	40.9821	-74.1127	1688	America/New_York
Muskego	WI	42.886	-88.1291	306	America/Chicago
Edgewood	MD	39.419	-76.2964	565	America/New_York
Palm City	FL	27.1735	-80.2862	697	America/New_York
University Park	TX	32.8506	-96.7937	2621	America/Chicago
De Pere	WI	44.4308	-88.0785	807	America/Chicago
Timberwood Park	TX	29.6995	-98.4838	473	America/Chicago
Ladera Ranch	CA	33.5492	-117.6417	1951	America/Los_Angeles
Grandview	MO	38.8802	-94.5227	655	America/Chicago
Champlin	MN	45.1702	-93.3903	1183	America/Chicago
Athens	OH	39.327	-82.0987	973	America/New_York
Paducah	KY	37.0711	-88.644	474	America/Chicago
Wyandotte	MI	42.2113	-83.1558	1819	America/Detroit
Belvidere	IL	42.2543	-88.8649	797	America/Chicago
Walker	MI	42.9853	-85.7446	391	America/Detroit
Silver Springs Shores	FL	29.1126	-82.0149	644	America/New_York
Elk River	MN	45.3314	-93.567	227	America/Chicago
South Bradenton	FL	27.4612	-82.5822	2132	America/New_York
Hastings	NE	40.5961	-98.39	644	America/Chicago
Kernersville	NC	36.1065	-80.0842	536	America/New_York
Bainbridge Island	WA	47.6439	-122.5434	347	America/Los_Angeles
Burlington	IA	40.8071	-91.1247	665	America/Chicago
North Laurel	MD	39.1285	-76.8476	1480	America/New_York
Denison	TX	33.7672	-96.5808	335	America/Chicago
Forest Grove	OR	45.5243	-123.1097	1644	America/Los_Angeles
Ardmore	OK	34.1949	-97.1256	192	America/Chicago
Paris	TX	33.6688	-95.546	272	America/Chicago
Decatur	GA	33.7711	-84.2963	2084	America/New_York
Hazleton	PA	40.9505	-75.9725	1603	America/New_York
Clinton	MS	32.354	-90.3403	228	America/Chicago
Rosemount	MN	44.7466	-93.0661	287	America/Chicago
Conway	SC	33.8401	-79.0431	404	America/New_York
Ives Estates	FL	25.9632	-80.183	3747	America/New_York
Newport	RI	41.4801	-71.3203	1245	America/New_York
Crestview	FL	30.7477	-86.5785	575	America/Chicago
Westmont	IL	41.7948	-87.9742	1904	America/Chicago
Wright	FL	30.4445	-86.6419	1733	America/Chicago
Northdale	FL	28.1058	-82.5263	1176	America/New_York
Staunton	VA	38.1593	-79.0611	477	America/New_York
West Memphis	AR	35.153	-90.1996	330	America/Chicago
Sandusky	OH	41.4468	-82.7024	987	America/New_York
Mill Creek East	WA	47.8361	-122.1877	2138	America/Los_Angeles
Emporia	KS	38.4028	-96.1932	783	America/Chicago
Riverbank	CA	37.726	-120.9433	2017	America/Los_Angeles
Medford	NY	40.822	-72.9859	880	America/New_York
Herndon	VA	38.9699	-77.3867	2213	America/New_York
Pooler	GA	32.1043	-81.2569	342	America/New_York
Palm River-Clair Mel	FL	27.9239	-82.3791	829	America/New_York
Marysville	OH	40.2279	-83.3595	589	America/New_York
Norton Shores	MI	43.1621	-86.2519	407	America/Detroit
Rockville Centre	NY	40.6643	-73.6383	2915	America/New_York
Coronado	CA	32.6649	-117.1604	1213	America/Los_Angeles
Homer Glen	IL	41.6043	-87.9497	427	America/Chicago
Ottumwa	IA	41.0195	-92.4186	589	America/Chicago
Key West	FL	24.5642	-81.7775	1689	America/New_York
Collinsville	IL	38.677	-90.0063	627	America/Chicago
Watauga	TX	32.8719	-97.2515	2273	America/Chicago
Brookings	SD	44.3022	-96.7859	702	America/Chicago
Fort Washington	MD	38.7339	-77.0069	684	America/New_York
Dinuba	CA	36.5453	-119.3987	1450	America/Los_Angeles
Farmington	UT	40.9845	-111.9065	947	America/Denver
Derby	KS	37.5571	-97.2551	917	America/Chicago
Candler-McAfee	GA	33.7267	-84.2723	1353	America/New_York
Wilsonville	OR	45.3109	-122.7702	1255	America/Los_Angeles
Trotwood	OH	39.7926	-84.3165	309	America/New_York
Norfolk	NE	42.0324	-97.4217	809	America/Chicago
Selma	CA	36.5715	-119.6143	1622	America/Los_Angeles
Willowbrook	CA	33.9209	-118.2356	5619	America/Los_Angeles
Inkster	MI	42.2935	-83.3148	1506	America/Detroit
Lodi	NJ	40.8784	-74.0814	4144	America/New_York
Mequon	WI	43.2352	-87.9839	203	America/Chicago
Arnold	MD	39.0437	-76.4974	868	America/New_York
Papillion	NE	41.1511	-96.0665	813	America/Chicago
Avon Lake	OH	41.4944	-82.0159	843	America/New_York
Palmetto Bay	FL	25.6219	-80.3221	1132	America/New_York
Harvey	IL	41.6076	-87.652	1511	America/Chicago
Okemos	MI	42.7057	-84.4135	556	America/Detroit
Elmwood Park	IL	41.9225	-87.8163	4911	America/Chicago
Seal Beach	CA	33.7542	-118.0714	831	America/Los_Angeles
San Benito	TX	26.1298	-97.644	593	America/Chicago
San Fernando	CA	34.2886	-118.4362	3942	America/Los_Angeles
Loma Linda	CA	34.045	-117.2498	1225	America/Los_Angeles
Ridgeland	MS	32.4236	-90.1481	436	America/Chicago
Fort Dodge	IA	42.5098	-94.1751	582	America/Chicago
North Potomac	MD	39.0955	-77.2373	1429	America/New_York
Somerset	NJ	40.5083	-74.501	1471	America/New_York
Peekskill	NY	41.2884	-73.9227	2142	America/New_York
Brandon	MS	32.2778	-89.9896	362	America/Chicago
North Lynnwood	WA	47.8533	-122.2762	2973	America/Los_Angeles
Waverly	MI	42.7401	-84.6354	1020	America/Detroit
Camas	WA	45.6005	-122.4304	659	America/Los_Angeles
Wekiwa Springs	FL	28.6984	-81.4251	1074	America/New_York
Dix Hills	NY	40.8033	-73.3375	588	America/New_York
Sugar Hill	GA	34.108	-84.0558	832	America/New_York
Auburn Hills	MI	42.6735	-83.2448	556	America/Detroit
South Plainfield	NJ	40.5748	-74.4152	1115	America/New_York
Ponca City	OK	36.7235	-97.0677	502	America/Chicago
Port St. John	FL	28.4757	-80.8104	991	America/New_York
Kalispell	MT	48.2153	-114.3274	743	America/Denver
Freeport	IL	42.2891	-89.6346	777	America/Chicago
Forney	TX	32.744	-96.4529	622	America/Chicago
Lathrop	CA	37.809	-121.3131	464	America/Los_Angeles
Faribault	MN	44.2996	-93.2789	594	America/Chicago
Columbus	MS	33.5088	-88.4096	367	America/Chicago
Calabasas	CA	34.1375	-118.6689	671	America/Los_Angeles
Saginaw	TX	32.8657	-97.3654	1202	America/Chicago
Chantilly	VA	38.8868	-77.4453	766	America/New_York
Wadsworth	OH	41.0279	-81.7323	810	America/New_York
West Springfield	VA	38.7771	-77.2268	1907	America/New_York
Centerville	OH	39.6339	-84.1449	836	America/New_York
Rosemont	CA	38.5478	-121.3553	2090	America/Los_Angeles
Fresno	TX	29.5357	-95.4696	1075	America/Chicago
Corsicana	TX	32.0824	-96.4665	398	America/Chicago
North Platte	NE	41.1263	-100.7641	677	America/Chicago
Monsey	NY	41.1181	-74.0682	3997	America/New_York
Edgewater	FL	28.9594	-80.9406	372	America/New_York
Pelham	AL	33.3114	-86.7573	235	America/Chicago
Cataño	PR	18.4375	-66.144	1893	America/Puerto_Rico
Allendale	MI	42.9845	-85.9499	393	America/Detroit
Windsor	CO	40.469	-104.9198	356	America/Denver
Zion	IL	42.4603	-87.8511	923	America/Chicago
Newberg	OR	45.3075	-122.9601	1546	America/Los_Angeles
Searcy	AR	35.2418	-91.7351	499	America/Chicago
Muscatine	IA	41.4195	-91.068	502	America/Chicago
South Elgin	IL	41.9906	-88.3135	1293	America/Chicago
Cudahy	CA	33.9631	-118.183	7748	America/Los_Angeles
Van Buren	AR	35.4483	-94.3528	591	America/Chicago
Oak Ridge	FL	28.4727	-81.4169	2567	America/New_York
Venice	FL	27.1184	-82.4137	571	America/New_York
Belton	MO	38.8192	-94.5335	638	America/Chicago
Ashland	CA	37.6942	-122.1159	4938	America/Los_Angeles
Jacksonville Beach	FL	30.2782	-81.4045	1243	America/New_York
Watertown	WI	43.1893	-88.7285	754	America/Chicago
Fish Hawk	FL	27.8511	-82.2164	560	America/New_York
West Puente Valley	CA	34.0513	-117.9681	4864	America/Los_Angeles
Barstow	CA	34.8661	-117.0471	220	America/Los_Angeles
